Repository,Stars,Contributor,Location,City,Country,Latitude,Longitude
AutoGPT,171829,Pwuts,"Delft, NL",Delft,Netherlands,52.01157689999999,4.3570677
AutoGPT,171829,Torantulino,UK,Oak,Central African Republic / Central African Republic,55.378051,-3.435973
AutoGPT,171829,richbeales,"Kent, UK",Kent,United Kingdom,51.0928319,0.8392470999999999
AutoGPT,171829,majdyz,Amsterdam,Amsterdam,The Netherlands,52.3675734,4.9041389
AutoGPT,171829,aarushik93,Berlin,Berlin,Germany,52.52000659999999,13.404954
AutoGPT,171829,ntindle,Texas,Texas,United States,30.27272809999999,-97.7411016
AutoGPT,171829,kcze,Scotland,Glasgow,Scotland,56.49067119999999,-4.2026458
AutoGPT,171829,collijk,United States,United States,United States,38.7945952,-106.5348379
AutoGPT,171829,AndresCdo,Colombia,Colombia,Colombia,4.570868,-74.297333
AutoGPT,171829,p-i-,"Oxford, England",Oxford,England,51.7520209,-1.2577263
AutoGPT,171829,maiko,Serris,Serris,France,48.84432,2.788231
AutoGPT,171829,drikusroor,"Utrecht, Netherlands",Utrecht,Netherlands,52.09192549999999,5.1229572
AutoGPT,171829,Abhi1992002,India,India,India,20.593684,78.96288
AutoGPT,171829,erik-megarad,Denver,Denver,United States,39.7392358,-104.990251
AutoGPT,171829,Wladastic,Germany,Germany,Germany,51.165691,10.451526
AutoGPT,171829,k-boikov,"Sofia, Bulgaria",Sofia,Bulgaria,42.6977082,23.3218675
AutoGPT,171829,dschonholtz,"Boston, MA",Boston,United States,42.3555076,-71.0565364
AutoGPT,171829,Taytay,"Tulsa, OK",Tulsa,United States,36.1551375,-95.989501
AutoGPT,171829,andrewhooker2,Texas,Texas,United States,30.27272809999999,-97.7411016
AutoGPT,171829,AlrikOlson,"Portland, OR",Portland,United States,45.515232,-122.6783853
AutoGPT,171829,OmriGM,Israel,Israel,Israel,31.046051,34.851612
AutoGPT,171829,Androbin,"Passau, Germany",Passau,Germany,48.5667364,13.4319466
AutoGPT,171829,russellocean,"South Carolina, United States",South Carolina,United States,34.8484945,-82.4000147
AutoGPT,171829,bituq,The Netherlands,The Netherlands,The Netherlands,52.132633,5.291265999999999
AutoGPT,171829,nponeccop,"Barcelona, Spain",Barcelona,Spain,41.3873974,2.168568
AutoGPT,171829,eltociear,"Tokyo, Japan",Tokyo,Japan,35.6764225,139.650027
AutoGPT,171829,didier-durand,Switzerland / France,Consulate General of Switzerland,France,46.818188,8.227511999999999
AutoGPT,171829,Sma-Das,New York,City of New York,United States,40.7127753,-74.0059728
AutoGPT,171829,gersh,"San Francisco, CA",San Francisco,Canada,37.7749295,-122.4194155
AutoGPT,171829,sagarishere,Åland,Åland,Finland,60.1785247,19.9156105
AutoGPT,171829,dillweed,USA,United States,USA,38.7945952,-106.5348379
AutoGPT,171829,gklab,HangZhou,Hangzhou,China,30.2741499,120.15515
AutoGPT,171829,hdkiller,Budapest,Budapest,Hungary,47.497912,19.040235
AutoGPT,171829,kbarnard10,"Reno, NV",Reno,United States,39.529919,-119.8142691
AutoGPT,171829,kreneskyp,Oregon,Oregon,United States,45.5154502,-122.6793507
AutoGPT,171829,chyezh,"Hangzhou, China",Hangzhou,China,30.2741499,120.15515
AutoGPT,171829,mikekelly,London,London,United Kingdom,51.5072178,-0.1275862
AutoGPT,171829,primaryobjects,Philadelphia,Philadelphia,United States,39.9525839,-75.1652215
AutoGPT,171829,PhilipAD,Manchester,Manchester,United Kingdom,53.4807593,-2.2426305
AutoGPT,171829,twajothi,New York ,City of New York,United States,40.7127753,-74.0059728
AutoGPT,171829,bsenst,Berlin-Brandenburg,Berlin Brandenburg Airport,Germany,52.3649645,13.5010472
AutoGPT,171829,muellerberndt,"Chiang Mai, Thailand",Chiang Mai,Thailand,18.7883439,98.9853008
AutoGPT,171829,SBNovaScript,"Trumbull, CT",Trumbull,United States,41.2428563,-73.2006639
AutoGPT,171829,aorwall,Stockholm,Stockholm,Sweden,59.3327036,18.0656255
AutoGPT,171829,chozzz,Bali,Ubud,Bali,-8.4095178,115.188916
AutoGPT,171829,keenborder786,Lahore,Lahore,Pakistan,31.5203696,74.35874729999999
AutoGPT,171829,BiaoLiu2017,"ShenZhen,China",ShenZhen,China,22.5428599,114.05956
AutoGPT,171829,ppetermann,"They have, Belgium",Have,Belgium,50.8097182,4.9370128
AutoGPT,171829,safimuhammad,"San Francisco, CA",San Francisco,Canada,37.7749295,-122.4194155
AutoGPT,171829,Explorergt92,"Atlanta, GA",Atlanta,United States,33.7501275,-84.3885209
AutoGPT,171829,jacobtohahn,"Raleigh, NC, USA",Raleigh,United States,35.7795897,-78.6381787
AutoGPT,171829,ThisisHubert,"Tokyo, Japan",Tokyo,Japan,35.6764225,139.650027
AutoGPT,171829,stplaydog,Mountain View,Mountain View,United States,37.3900264,-122.0812304
AutoGPT,171829,endolith,"New York, NY",New York,United States,40.7127753,-74.0059728
AutoGPT,171829,Wiradjuri,Sydney,Sydney,Australia,-33.8688197,151.2092955
AutoGPT,171829,willcallender,"Tallahassee, Florida",Tallahassee,Florida,30.4381828,-84.2806235
AutoGPT,171829,gty3310,"waterloo,ON",waterloo,ON,43.4642578,-80.5204096
AutoGPT,171829,BaseInfinity,California,California,United States,34.0548951,-118.2426415
AutoGPT,171829,SarahGrevy,Columbia University ,Columbia University,United States,40.8075355,-73.9625727
AutoGPT,171829,pitmonticone,"Trento, Italy",Trento,Italy,46.06738559999999,11.1267378
AutoGPT,171829,younessZMZ,Morocco,Morocco,Morocco,31.791702,-7.09262
AutoGPT,171829,youkaichao,"Beijing, China",Beijing,China,39.904211,116.407395
AutoGPT,171829,rickythefox,"Nomad - currently in Prague, CZ",Nomad - currently in Prague,CZ,50.0755381,14.4378005
AutoGPT,171829,non-adj,"Salem, Oregon",Salem,Oregon,44.9362411,-123.0407496
AutoGPT,171829,ethethanlee,United States,United States,United States,38.7945952,-106.5348379
AutoGPT,171829,dhensen,"The Hague, The Netherlands",The Hague,The Netherlands,52.0704978,4.3006999
AutoGPT,171829,DenTheProgrammer,Russia,Moscow,Russia,61.52401,105.318756
AutoGPT,171829,dawnkelly09,"Ohio, USA",Ohio,United States,39.96223320000001,-83.0006522
AutoGPT,171829,hisandan,Bogota (Colombia),Bogota,Colombia,4.710988599999999,-74.072092
AutoGPT,171829,NinjaGPT,USA,United States,USA,38.7945952,-106.5348379
AutoGPT,171829,CodeZeno,Australia,Melbourne,Australia,-25.274398,133.775136
AutoGPT,171829,cwenner,"Stockholm, Sweden",Stockholm,Sweden,59.3327036,18.0656255
AutoGPT,171829,ccsnow127,United States,United States,United States,38.7945952,-106.5348379
AutoGPT,171829,bfalans,Netherlands,The Netherlands,Netherlands,52.132633,5.291265999999999
AutoGPT,171829,ambujpawar,"Eindhoven, The Netherlands",Eindhoven,The Netherlands,51.42314229999999,5.462289699999999
AutoGPT,171829,alexonab,Texas,Texas,United States,30.27272809999999,-97.7411016
AutoGPT,171829,MichaelSheinman,"Toronto, ON",Toronto,ON,43.653226,-79.3831843
AutoGPT,171829,mplummeridge,"Leeds, UK",Leeds,United Kingdom,53.8007554,-1.5490774
AutoGPT,171829,Lootheo,"Puebla, Mexico",Puebla,Mexico,19.0414398,-98.2062727
AutoGPT,171829,LuisLechugaRuiz,Malaga,Malaga,Spain,36.7178196,-4.425557
AutoGPT,171829,zhanglei1172,"Xiamen of Fujian Province, China",Xiamen of Fujian Province,China,24.4795099,118.0894799
AutoGPT,171829,kshivang,"Palo Alto, CA",Palo Alto,United States,37.4418834,-122.1430195
AutoGPT,171829,voulkon,Athens,Athens,United States,37.9838096,23.7275388
AutoGPT,171829,MrBrain295,United States,United States,United States,38.7945952,-106.5348379
AutoGPT,171829,gocodeo,"Bengaluru, India",Bengaluru,India,12.9715987,77.5945627
AutoGPT,171829,filipjakubowski,London,London,United Kingdom,51.5072178,-0.1275862
AutoGPT,171829,isayahc,Brooklyn,Brooklyn,United States,40.6781784,-73.9441579
AutoGPT,171829,ishworpanta10,Nepal,Nepal,Nepal,28.394857,84.12400799999999
AutoGPT,171829,u007,"Kuala Lumpur, Malaysia",Kuala Lumpur,Malaysia,3.1319197,101.6840589
AutoGPT,171829,jiezhangGt,Maryland,Maryland,United States,39.2904781,-76.6110319
AutoGPT,171829,chitalian,San Francisco,San Francisco,United States,37.7749295,-122.4194155
AutoGPT,171829,Kiran1689,India,India,India,20.593684,78.96288
AutoGPT,171829,calmglow,Seoul,Seoul Metropolitan City,korea,37.550263,126.9970831
AutoGPT,171829,JesseRWeigel,"Steubenville, Ohio",Steubenville,United States,40.3697905,-80.6339638
AutoGPT,171829,jayden5744,Seoul,Seoul Metropolitan City,korea,37.550263,126.9970831
AutoGPT,171829,jayceslesar,"Burlington, Vermont",Burlington,Vermont,44.4758825,-73.212072
AutoGPT,171829,PopviZ,"Victoria, Australia",Victoria,Australia,-36.9847807,143.3906074
AutoGPT,171829,chenfengyanyu,Beijing,Beijing,China,39.904211,116.407395
AutoGPT,171829,johnisanerd,"Washington, DC",Washington,United States,38.9071923,-77.0368707
AutoGPT,171829,gantit,Spain,Spain,Spain,40.46366700000001,-3.74922
AutoGPT,171829,joslangarica,Mexico,Mexico City,Mexico,23.634501,-102.552784
AutoGPT,171829,josephbisaillon,"Tampa, FL",Tampa,United States,27.9516896,-82.4587527
AutoGPT,171829,Josh-XT,Ohio,Ohio,United States,39.96223320000001,-83.0006522
AutoGPT,171829,joshyorko,Boston,Boston,United States,42.3555076,-71.0565364
AutoGPT,171829,joycebrum,São Paulo,São Paulo,Brazil,-23.5557714,-46.6395571
AutoGPT,171829,joaorafaelm,"Curitiba, Brazil",Curitiba,Brazil,-25.4268985,-49.2651984
AutoGPT,171829,JuroOravec,"Bratislava, SK",Bratislava,SK,48.1485965,17.1077477
AutoGPT,171829,sdfgsdfgd,Melbourne,Melbourne,Australia,-37.8136276,144.9630576
AutoGPT,171829,mogronalol,United Kingdom,United Kingdom,United Kingdom,55.378051,-3.435973
AutoGPT,171829,georgehaws,Mid-Atlantic,Mid-Atlantic,United States,40.6465953,-77.9281719
AutoGPT,171829,6rzes,Silesia,Silesia,United States,50.5716595,19.3219768
AutoGPT,171829,miandai,beijing,Beijing,China,39.904211,116.407395
AutoGPT,171829,hamidzr,"San Francisco, CA",San Francisco,Canada,37.7749295,-122.4194155
AutoGPT,171829,HawkClaws,Japan,Japan,Japan,36.204824,138.252924
AutoGPT,171829,Arthur-Heng,Berkeley,Berkeley,United States,37.8715226,-122.273042
AutoGPT,171829,hugomastromauro,Brazil,Brazil,Brazil,-14.235004,-51.92528
AutoGPT,171829,igormarga,"Ukraine, Odessa",Ukraine,Odessa,46.4702111,30.7306393
AutoGPT,171829,ledrui,"Seattle, Wa",Seattle,United States,47.6061389,-122.3328481
AutoGPT,171829,Imccccc,Singapore,Singapore,Singapore,1.352083,103.819836
AutoGPT,171829,itaisteinherz,Israel,Israel,Israel,31.046051,34.851612
AutoGPT,171829,JadeCong,ShenZhen,Shenzhen,China,22.5428599,114.05956
AutoGPT,171829,jafar-albadarneh,"Amman, Jordan",Amman,Jordan,31.9543786,35.9105776
AutoGPT,171829,jakubbober,London,London,United Kingdom,51.5072178,-0.1275862
AutoGPT,171829,BorntraegerMarc,"Zürich, Switzerland",Zurich,Switzerland,47.3768866,8.541694
AutoGPT,171829,giggei,Bavaria,Bayern,Germany,48.1319124,11.5709058
AutoGPT,171829,xhypeDE,"Nijmegen, NL",Nijmegen,Netherlands,51.8432807,5.8609313
AutoGPT,171829,480,Seoul,Seoul Metropolitan City,korea,37.550263,126.9970831
AutoGPT,171829,SeaField-dev,South Africa,Cape Town,South Africa,-30.559482,22.937506
AutoGPT,171829,MauroDruwel,Ingelmunster,Ingelmunster,Belgium / Belgium / Belgium,50.9206012,3.2534444
AutoGPT,171829,maxletemple,"Paris, France",Paris,France,48.8575475,2.3513765
AutoGPT,171829,schumacher-m,"Berlin, Germany",Berlin,Germany,52.52000659999999,13.404954
AutoGPT,171829,micwin,"Germany, Ravensburg",Germany,Ravensburg,47.78543579999999,9.6103864
AutoGPT,171829,mickqian,Hangzhou,Hangzhou,China,30.2741499,120.15515
AutoGPT,171829,jmikedupont2,New Jersey,New Jersey,United States,40.7315591,-74.1744228
AutoGPT,171829,mharris717,"New York, NY",New York,United States,40.7127753,-74.0059728
AutoGPT,171829,MikelCalvo,Basque Country,Basque Country,Spain,42.9896248,-2.6189273
AutoGPT,171829,pihanya,"Georgia, Tbilisi",Georgia,Tbilisi,41.6938026,44.80151679999999
AutoGPT,171829,MohamedBasueny,egypt,Egypt,egypt,26.820553,30.802498
AutoGPT,171829,MuriloEduardo,"Porto Alegre, RS",Porto Alegre,RS,-30.0368176,-51.2089887
AutoGPT,171829,Funkelfetisch,"Berlin, Germany",Berlin,Germany,52.52000659999999,13.404954
AutoGPT,171829,kiyanwang,"Birmingham, United Kingdom",Birmingham,United Kingdom,52.4822694,-1.8900078
AutoGPT,171829,kaiomagalhaes,Goias - Brazil,Goias,Brazil,-15.7050424,-49.3653149
AutoGPT,171829,Thakay,Montreal,Montreal,Canada,45.5018869,-73.5673919
AutoGPT,171829,kevinboudot,Paris,Paris,France,48.8575475,2.3513765
AutoGPT,171829,khelil,"Nantes, FRANCE",Nantes,FRANCE,47.218371,-1.553621
AutoGPT,171829,KissPeter,Budapest,Budapest,Hungary,47.497912,19.040235
AutoGPT,171829,konraddroeske,Toronto,Toronto,Canada,43.653226,-79.3831843
AutoGPT,171829,kristianjackson,"King George, VA",King George,United States,38.2664512,-77.1807842
AutoGPT,171829,lwneal,"Portland, OR",Portland,United States,45.515232,-122.6783853
AutoGPT,171829,leondz,Copenhagen · Seattle,Seattle,Denmark,47.6061389,-122.3328481
AutoGPT,171829,lewispeel,London,London,United Kingdom,51.5072178,-0.1275862
AutoGPT,171829,ldnvnbl,"ShangHai, China",ShangHai,China,31.230416,121.473701
AutoGPT,171829,lukadumancic,Zagreb,City of Zagreb,Croatia,45.8150108,15.981919
AutoGPT,171829,JackDance,Shanghai,Shanghai,China,31.230416,121.473701
AutoGPT,171829,yashrahurikar23,"Pune, India",Pune,India,18.5204303,73.8567437
AutoGPT,171829,MKdir98,Tehran,Tehran city,Iran,35.7218583,51.3346954
AutoGPT,171829,tmalahie,"Paris, France",Paris,France,48.8575475,2.3513765
AutoGPT,171829,manskx,"Munich, Germany",Munich,Germany,48.1351253,11.5819806
AutoGPT,171829,aniruddha-adhikary,Singapore,Singapore,Singapore,1.352083,103.819836
AutoGPT,171829,RedTachyon,Paris,Paris,France,48.8575475,2.3513765
AutoGPT,171829,Ashish-Soni08,"Leipzig, Germany",Leipzig,Germany,51.3396955,12.3730747
AutoGPT,171829,Ashutoshkataria19,India,India,India,20.593684,78.96288
AutoGPT,171829,asifdotpy,"Dhaka, Bangladesh",Dhaka,Bangladesh,23.804093,90.4152376
AutoGPT,171829,kumayu0108,Bangalore,Bengaluru,India,12.9715987,77.5945627
AutoGPT,171829,warnyul,"Budapest, Hungary",Budapest,Hungary,47.497912,19.040235
AutoGPT,171829,bary12,"Tel Aviv, Israel",Tel Aviv,Israel,32.0852999,34.78176759999999
AutoGPT,171829,BatesJernigan,"Charlotte, NC",Charlotte,United States,35.2215548,-80.840116
AutoGPT,171829,bobvanluijt,Amsterdam,Amsterdam,The Netherlands,52.3675734,4.9041389
AutoGPT,171829,banderson12,"Denver, Colorado",Denver,Colorado,39.7392358,-104.990251
AutoGPT,171829,LightInn,Nantes,Nantes,France,47.218371,-1.553621
AutoGPT,171829,bRitch022,"Colorado Springs, CO",Colorado Springs,United States,38.8353142,-104.8216009
AutoGPT,171829,bufo24,Netherlands,The Netherlands,Netherlands,52.132633,5.291265999999999
AutoGPT,171829,cagdasbas,Ankara,Ankara,Türkiye,39.9333635,32.8597419
AutoGPT,171829,fqd511,shenzhen,Shenzhen,China,22.5428599,114.05956
AutoGPT,171829,Qoyyuum,Brunei Darussalam,Brunei,Brunei Darussalam,4.535277,114.727669
AutoGPT,171829,aliumujib,"Nigeria, Lagos",Nigeria,Lagos,6.5243793,3.3792057
AutoGPT,171829,abdllahdev,"Birmingham, UK",Birmingham,United Kingdom,52.4822694,-1.8900078
AutoGPT,171829,Fried-Squid,UK,Oak,Central African Republic / Central African Republic,55.378051,-3.435973
AutoGPT,171829,ada-lovecraft,"Dallas, TX",Dallas,United States,32.7766642,-96.7969879
AutoGPT,171829,AdrianScott,U.S. Time Zone,United States,United States,38.7945952,-106.5348379
AutoGPT,171829,aiherrera1,"Santiago, Chile",Santiago,Chile,-33.4488897,-70.6692655
AutoGPT,171829,Ahmad-Alaziz,"Warsaw, Poland",Warsaw,Poland,52.2296756,21.0122287
AutoGPT,171829,hazzari,Russia,Moscow,Russia,61.52401,105.318756
AutoGPT,171829,dotdust,Italy,Italy,Italy,41.87194,12.56738
AutoGPT,171829,alexsoyes,France,France,France,46.227638,2.213749
AutoGPT,171829,AlexKissiJr,Los Angeles CA,Los Angeles,United States,34.0549076,-118.242643
AutoGPT,171829,alexworden,San Francisco Bay Area,San Francisco Bay Area,United States,37.7749295,-122.4194155
AutoGPT,171829,snaky-ru,St.Petersburg,Saint Petersburg,Russia,27.7671271,-82.6384451
AutoGPT,171829,AJV009,"India, Earth!",India,Earth!,20.593684,78.96288
AutoGPT,171829,althaf004,Kerala,Kerala,India,10.1631526,76.64127119999999
AutoGPT,171829,AmahAjavon,San Diego CA,San Diego,United States,32.715738,-117.1610838
AutoGPT,171829,amebru,"New York, NY",New York,United States,40.7127753,-74.0059728
AutoGPT,171829,aaly00,"Boston, MA",Boston,United States,42.3555076,-71.0565364
AutoGPT,171829,anatoliykmetyuk,"Tokyo, Japan",Tokyo,Japan,35.6764225,139.650027
AutoGPT,171829,4nd3rs,Stockholm,Stockholm,Sweden,59.3327036,18.0656255
AutoGPT,171829,bbaaxx,"Bajio, Mexico",Bajio,Mexico,21.3614549,-101.9303199
AutoGPT,171829,lalo,NYC,City of New York,United States,40.7127753,-74.0059728
AutoGPT,171829,egonm12,Netherlands,The Netherlands,Netherlands,52.132633,5.291265999999999
AutoGPT,171829,ehtec,"Zürich, Switzerland",Zurich,Switzerland,47.3768866,8.541694
AutoGPT,171829,emmanuel-ferdman,Israel,Israel,Israel,31.046051,34.851612
AutoGPT,171829,enricofranke,Germany,Germany,Germany,51.165691,10.451526
AutoGPT,171829,pilotniq,"Stockholm, Sweden",Stockholm,Sweden,59.3327036,18.0656255
AutoGPT,171829,erlendjones,"Oslo, Norway",Oslo,Norway,59.9138688,10.7522454
AutoGPT,171829,esaiaswestberg,"Falkoping, Sweden",Falkoping,Sweden,58.17502899999999,13.553217
AutoGPT,171829,zedatrix,"Raleigh, NC",Raleigh,United States,35.7795897,-78.6381787
AutoGPT,171829,ezolenko,Calgary,Calgary,Canada,51.04473309999999,-114.0718831
AutoGPT,171829,elynch303,Toronto,Toronto,Canada,43.653226,-79.3831843
AutoGPT,171829,faichele,Germany,Germany,Germany,51.165691,10.451526
AutoGPT,171829,faranbutt,Pakistan,Lahore,Pakistan,30.375321,69.34511599999999
AutoGPT,171829,farizrahman4u,"Kochi, India",Kochi,India,9.9312328,76.26730409999999
AutoGPT,171829,fzoric8,Zagreb,City of Zagreb,Croatia,45.8150108,15.981919
AutoGPT,171829,Fluder-Paradyne,Bengaluru,Bengaluru,India,12.9715987,77.5945627
AutoGPT,171829,Sewen,"Stockholm, Sweden",Stockholm,Sweden,59.3327036,18.0656255
AutoGPT,171829,Fullstop000,Hangzhou Zhejiang,Hangzhou,China,30.2741499,120.15515
AutoGPT,171829,CHIGUI0,Chicago,Chicago,United States,41.8781136,-87.6297982
AutoGPT,171829,gabrielrbarbosa,"Londrina, PR, Brazil",Londrina,Brazil,-23.3197305,-51.1662008
AutoGPT,171829,tomkat-cr,"Medellin, Antioquia, Colombia",Medellin,Colombia,6.2476376,-75.5658153
AutoGPT,171829,CatMe0w,"Edmonton, AB, Canada",Edmonton,Canada,53.5460983,-113.4937266
AutoGPT,171829,superchaoran,"CA, United States",CA,United States,34.0548951,-118.2426415
AutoGPT,171829,chrisvxd,London,London,United Kingdom,51.5072178,-0.1275862
AutoGPT,171829,dagelf,Cape Town,Cape Town,South Africa,-33.922087,18.4231418
AutoGPT,171829,corpetty,NC,Raleigh,United States,35.7804509,-78.6400751
AutoGPT,171829,cwperks,"Boston, MA",Boston,United States,42.3555076,-71.0565364
AutoGPT,171829,DJStompZone,"California, USA",California,United States,34.0548951,-118.2426415
AutoGPT,171829,danhamilt,Toronto,Toronto,Canada,43.653226,-79.3831843
AutoGPT,171829,dannaward,"Seoul, Korea",Seoul,Korea,37.550263,126.9970831
AutoGPT,171829,scenaristeur,Lyon,Lyon,France,45.764043,4.835659
AutoGPT,171829,dwrtz,"Vancouver, WA",Vancouver,United States,45.6280277,-122.673865
AutoGPT,171829,flashdumper,"Colorado, USA",Colorado,United States,39.7400624,-104.9861601
AutoGPT,171829,DhruvAwasthi,"Bangalore, Karnataka",Bangalore,Karnataka,12.9715987,77.5945627
AutoGPT,171829,droosma,NL,The Netherlands,NL,54.2730918,-61.7387586
stable-diffusion-webui,148290,akx,Finland,Finland,Finland,61.92410999999999,25.748151
stable-diffusion-webui,148290,KohakuBlueleaf,"Hsinchu, Taiwan",Hsinchu,Taiwan,24.8138287,120.9674798
stable-diffusion-webui,148290,vladmandic,"Miami, Florida",Miami,Florida,25.7616798,-80.1917902
stable-diffusion-webui,148290,R-N,Indonesia,Indonesia,Indonesia,-0.789275,113.921327
stable-diffusion-webui,148290,wfjsw,"Saint Louis, US",Saint Louis,United States,38.6270025,-90.1994042
stable-diffusion-webui,148290,EllangoK,New York City,City of New York,United States,40.7127753,-74.0059728
stable-diffusion-webui,148290,discus0434,Japan,Japan,Japan,36.204824,138.252924
stable-diffusion-webui,148290,huchenlei,Canada,San Francisco,Canada,56.130366,-106.346771
stable-diffusion-webui,148290,daniandtheweb,Italy,Italy,Italy,41.87194,12.56738
stable-diffusion-webui,148290,Harvester62,Mirandola (MO) - Italy,Looking at it,Italy,44.8865488,11.0634524
stable-diffusion-webui,148290,Mozoloa,France,France,France,46.227638,2.213749
stable-diffusion-webui,148290,mcmonkey4eva,"Los Angeles, California",Los Angeles,California,34.0549076,-118.242643
stable-diffusion-webui,148290,aliencaocao,Singapore,Singapore,Singapore,1.352083,103.819836
stable-diffusion-webui,148290,Dalton-Murray,Michigan,Michigan,United States,42.73358109999999,-84.5537867
stable-diffusion-webui,148290,Milly,"Shibuya, Tokyo, Japan",Shibuya,Japan,35.6619707,139.703795
stable-diffusion-webui,148290,Nuullll,Shanghai,Shanghai,China,31.230416,121.473701
stable-diffusion-webui,148290,wywywywy,UK,Oak,Central African Republic / Central African Republic,55.378051,-3.435973
stable-diffusion-webui,148290,krisfail,The University of Tokyo,"University of Tokyo, Kashiwa Campus",Japan,35.7138159,139.7627345
stable-diffusion-webui,148290,MrCheeze,Toronto,Toronto,Canada,43.653226,-79.3831843
stable-diffusion-webui,148290,EugenioBuffo,"Milan, Italy",Milan,Italy,45.468503,9.1824027
stable-diffusion-webui,148290,EyeDeck,Florida,Florida,United States,30.4380786,-84.2806241
stable-diffusion-webui,148290,Spaceginner,"near Kyiv, Ukraine",near Kyiv,Ukraine,50.4503596,30.5245025
stable-diffusion-webui,148290,xmodar,"Riyadh, Saudi Arabia",Riyadh,Saudi Arabia,24.7135517,46.6752957
stable-diffusion-webui,148290,Connum,Germany,Germany,Germany,51.165691,10.451526
stable-diffusion-webui,148290,ClashSAN,fat,50/A,700053,22.5070419,88.3342119
stable-diffusion-webui,148290,Melanpan,Netherlands,The Netherlands,Netherlands,52.132633,5.291265999999999
stable-diffusion-webui,148290,rewbs,Sydney,Sydney,Australia,-33.8688197,151.2092955
stable-diffusion-webui,148290,siutin,Hong Kong,Hong Kong,China,22.3193039,114.1693611
stable-diffusion-webui,148290,philpax,"Stockholm, Sweden",Stockholm,Sweden,59.3327036,18.0656255
stable-diffusion-webui,148290,Shondoit,Netherlands,The Netherlands,Netherlands,52.132633,5.291265999999999
stable-diffusion-webui,148290,wangshuai09,"Xi'an, China",Xi'an,China,34.2658138,108.9540936
stable-diffusion-webui,148290,wkpark,"Seoul, South Korea",Seoul,South Korea,37.550263,126.9970831
stable-diffusion-webui,148290,moorehousew,Canada,San Francisco,Canada,56.130366,-106.346771
stable-diffusion-webui,148290,NoCrypt,Indonesia,Indonesia,Indonesia,-0.789275,113.921327
stable-diffusion-webui,148290,tinker495,Seoul,Seoul Metropolitan City,korea,37.550263,126.9970831
stable-diffusion-webui,148290,hako-mikan,Japan,Japan,Japan,36.204824,138.252924
stable-diffusion-webui,148290,ddPn08,japan,Japan,japan,36.204824,138.252924
stable-diffusion-webui,148290,aalbacetef,Spain,Spain,Spain,40.46366700000001,-3.74922
stable-diffusion-webui,148290,Ju1-js,Canada,San Francisco,Canada,56.130366,-106.346771
stable-diffusion-webui,148290,MMP0,"Tokyo-to, Japan",Tokyo-to,Japan,35.6764225,139.650027
stable-diffusion-webui,148290,MaikoTan,"Guangdong, China",Guangdong,China,23.1317099,113.26627
stable-diffusion-webui,148290,fa0311,"Oita, Japan",And do it.,Japan,33.2396084,131.6095148
stable-diffusion-webui,148290,storyicon,Los Angeles,Los Angeles,United States,34.0549076,-118.242643
stable-diffusion-webui,148290,kingljl,beijing,Beijing,China,39.904211,116.407395
stable-diffusion-webui,148290,hoblin,"Kotka, Finland",Kotka,Finland,60.4665666,26.9459403
stable-diffusion-webui,148290,TinyBeeman,Seattle,Seattle,United States,47.6061389,-122.3328481
stable-diffusion-webui,148290,JustMaier,"Boise, ID",Boise,United States,43.6150186,-116.2023137
stable-diffusion-webui,148290,EliasOenal,"San Mateo, CA",Saint Matthew,Canada,37.5629917,-122.3255254
stable-diffusion-webui,148290,deggua,USA,United States,USA,38.7945952,-106.5348379
stable-diffusion-webui,148290,infinitewarp,"Cary, NC, USA",Cary,United States,35.7890402,-78.7797644
stable-diffusion-webui,148290,bdrupieski,Baltimore,Baltimore,United States,39.2905023,-76.6104072
stable-diffusion-webui,148290,Tps-F,"Kyoto, Japan",Kyoto,Japan,35.011564,135.7681489
stable-diffusion-webui,148290,gmq,Chile,Chile,Chile,-35.675147,-71.542969
stable-diffusion-webui,148290,Haoming02,Taiwan,Taiwan,Taiwan,23.69781,120.960515
stable-diffusion-webui,148290,royshil,United States,United States,United States,38.7945952,-106.5348379
stable-diffusion-webui,148290,deckar01,"Tulsa, OK, USA",Tulsa,United States,36.1551375,-95.989501
stable-diffusion-webui,148290,maxaudron,Germany,Germany,Germany,51.165691,10.451526
stable-diffusion-webui,148290,cluder,Switzerland,Switzerland/Switzerland/Switzerland/Swiss,Switzerland,46.818188,8.227511999999999
stable-diffusion-webui,148290,ibrainventures,Germany / near Frankfurt,Frankfurt,Germany,50.1109221,8.6821267
stable-diffusion-webui,148290,monkeylashes,"Bellevue, Washington",Bellevue,Washington,47.6101497,-122.2015159
stable-diffusion-webui,148290,kopyl,"Kyiv, Ukraine",Kyiv,Ukraine,50.4503596,30.5245025
stable-diffusion-webui,148290,n0kovo,Denmark,Denmark,Denmark,56.26392,9.501785
stable-diffusion-webui,148290,pangbo13,China,China,China,35.86166,104.195397
stable-diffusion-webui,148290,ssysm,Tampa,Tampa,United States,27.9516896,-82.4587527
stable-diffusion-webui,148290,superhero-7,Beijing,Beijing,China,39.904211,116.407395
stable-diffusion-webui,148290,vladlearns,"Ukraine, Kyiv",Ukraine,Kyiv,50.4503596,30.5245025
stable-diffusion-webui,148290,adam-huganir,baltimore,Baltimore,United States,39.2905023,-76.6104072
stable-diffusion-webui,148290,overra,"Longview, TX",Longview,United States,32.5007037,-94.7404891
stable-diffusion-webui,148290,cabelo,Brazil,Brazil,Brazil,-14.235004,-51.92528
stable-diffusion-webui,148290,anastasiuspernat,San Francisco Bay Area,San Francisco Bay Area,United States,37.7749295,-122.4194155
stable-diffusion-webui,148290,leszekhanusz,Belgium,Belgium / Belgium / Belgium,Belgium,50.503887,4.469936
stable-diffusion-webui,148290,JamElyZEuS,"Krasnoyarsk, Russia",Krasnoyarsk,Russia,56.01528339999999,92.8932476
stable-diffusion-webui,148290,JashoBell,"Corvallis, OR",Corvallis,United States,44.5646356,-123.2619607
stable-diffusion-webui,148290,JohannesGaessler,"Karlsruhe, Germany",Karlsruhe,Germany,49.0068901,8.4036527
stable-diffusion-webui,148290,dongweiming,"Beijing, China",Beijing,China,39.904211,116.407395
stable-diffusion-webui,148290,Ming424,Montreal,Montreal,Canada,45.5018869,-73.5673919
stable-diffusion-webui,148290,maybe-hello-world,"Santa Barbara, CA",Santa Barbara,Canada,34.420285,-119.698935
stable-diffusion-webui,148290,rick2047,"Eindhoven, The Netherlands",Eindhoven,The Netherlands,51.42314229999999,5.462289699999999
stable-diffusion-webui,148290,micky2be,Europe,Europe,Europe,54.5259614,15.2551187
stable-diffusion-webui,148290,yuvalabou,"Talmon, Israel",Talmon,Israel,31.046051,34.851612
stable-diffusion-webui,148290,TiagoSantos81,Portugal - Worldwide,Euronet Worldwide,Portugal,39.39987199999999,-8.224454
stable-diffusion-webui,148290,melchiar,"BC, Canada",BC,Canada,53.7266683,-127.6476206
stable-diffusion-webui,148290,rabanti-github,Switzerland,Switzerland/Switzerland/Switzerland/Swiss,Switzerland,46.818188,8.227511999999999
stable-diffusion-webui,148290,fumiama,"Xi'an, China",Xi'an,China,34.2658138,108.9540936
stable-diffusion-webui,148290,tateisu,"Akihabara, Tokyo",Akihabara,Tokyo,35.6996473,139.7713703
stable-diffusion-webui,148290,JingShing,Taiwan,Taiwan,Taiwan,23.69781,120.960515
stable-diffusion-webui,148290,Omegastick,"Birmingham, UK",Birmingham,United Kingdom,52.4822694,-1.8900078
stable-diffusion-webui,148290,Extraltodeus,"Geneva, Switzerland",Geneva,Switzerland,46.2043907,6.1431577
stable-diffusion-webui,148290,dben,"Raleigh, NC",Raleigh,United States,35.7795897,-78.6381787
stable-diffusion-webui,148290,baptisterajaut,France,France,France,46.227638,2.213749
stable-diffusion-webui,148290,AndreyRGW,"Russia, Lyubertsy",Russia,Lyubertsy,55.6808134,37.8887253
stable-diffusion-webui,148290,GoulartNogueira,Brazil,Brazil,Brazil,-14.235004,-51.92528
stable-diffusion-webui,148290,NouberNou,"Seattle, WA",Seattle,United States,47.6061389,-122.3328481
stable-diffusion-webui,148290,ranareehanaslam,Lahore,Lahore,Pakistan,31.5203696,74.35874729999999
stable-diffusion-webui,148290,JohanAR,Sweden,Sweden,Sweden,60.12816100000001,18.643501
stable-diffusion-webui,148290,neural-loop,US,United States,US,38.7945952,-106.5348379
stable-diffusion-webui,148290,Kalekki,"Jyvaskyla, FI",Jyvaskyla,BE,62.2426034,25.7472567
stable-diffusion-webui,148290,Keavon,"Bay Area, California",Bay Area,California,37.8271784,-122.2913078
stable-diffusion-webui,148290,Kilvoctu,Texas,Texas,United States,30.27272809999999,-97.7411016
stable-diffusion-webui,148290,Iheuzio,Canada,San Francisco,Canada,56.130366,-106.346771
stable-diffusion-webui,148290,ilya-khadykin,"Wroclaw, Poland",Wroclaw,Poland,51.10929480000001,17.0386019
stable-diffusion-webui,148290,ibrahimsn98,"Ankara, Turkey",Ankara,Turkey,39.9333635,32.8597419
stable-diffusion-webui,148290,jamesmoore,Westmorland,Westmorland,United States,33.0372674,-115.6213817
stable-diffusion-webui,148290,joecodecreations,North Carolina,North Carolina,United States,35.7804509,-78.6400751
stable-diffusion-webui,148290,morgil,Karlsruhe,Karlsruhe,Germany,49.0068901,8.4036527
stable-diffusion-webui,148290,jordenyt,Hong Kong,Hong Kong,China,22.3193039,114.1693611
stable-diffusion-webui,148290,rick68,"Kaohsiung, Taiwan",Kaohsiung,Taiwan,22.6272772,120.3014375
stable-diffusion-webui,148290,Hao-Wu,Beijing,Beijing,China,39.904211,116.407395
stable-diffusion-webui,148290,hotdogee,"Taipei, Taiwan",Taipei,Taiwan,25.0329694,121.5654177
stable-diffusion-webui,148290,galekseev,Buenos Aires,Buenos Aires,Argentina,-34.6036844,-58.3815591
stable-diffusion-webui,148290,guming3d,"Beijing,China",Beijing,China,39.904211,116.407395
stable-diffusion-webui,148290,GeorgLegato,Germany,Germany,Germany,51.165691,10.451526
stable-diffusion-webui,148290,grmrgecko,"Huntsville, AL",Huntsville,United States,34.7295497,-86.5853155
stable-diffusion-webui,148290,fubuki4649,"Utsunomiya City, Tochigi Prefecture",Tochigi,Japan,36.6714739,139.8547266
stable-diffusion-webui,148290,nelsonjchen,"Los Angeles, CA",Los Angeles,Canada,34.0549076,-118.242643
stable-diffusion-webui,148290,neilmahaseth,India,India,India,20.593684,78.96288
stable-diffusion-webui,148290,montyanderson,london,London,United Kingdom,51.5072178,-0.1275862
stable-diffusion-webui,148290,gmikhail,Ukraine,Ukraine,Ukraine,48.379433,31.16558
stable-diffusion-webui,148290,racinmat,Prague,Capital city Prague,Czechia,50.0755381,14.4378005
stable-diffusion-webui,148290,MarcusAdams,"Cincinnati, OH",Cincinnati,United States,39.1031182,-84.5120196
stable-diffusion-webui,148290,looki,Germany,Germany,Germany,51.165691,10.451526
stable-diffusion-webui,148290,nero-dv,"Houston, TX",Houston,United States,29.7600771,-95.3701108
stable-diffusion-webui,148290,Lopyter,Germany,Germany,Germany,51.165691,10.451526
stable-diffusion-webui,148290,leppie,"Cape Town, South Africa",Cape Town,South Africa,-33.922087,18.4231418
stable-diffusion-webui,148290,jwatzman,"London, UK",London,United Kingdom,51.5072178,-0.1275862
stable-diffusion-webui,148290,cclauss,Switzerland,Switzerland/Switzerland/Switzerland/Swiss,Switzerland,46.818188,8.227511999999999
stable-diffusion-webui,148290,Cikmo,Norway,Trondheim,Norway,60.47202399999999,8.468945999999999
stable-diffusion-webui,148290,chekaaa,"Temuco, Chile",Temuco,Chile,-38.7383905,-72.5904598
stable-diffusion-webui,148290,offchan42,Thailand,Thailand,Thailand,15.870032,100.992541
stable-diffusion-webui,148290,SineSwiper,"Louisville, KY",Louisville,United States,38.2468618,-85.7663724
stable-diffusion-webui,148290,AscendedGravity,Wisconsin,Wisconsin,United States,43.0761864,-89.3821606
stable-diffusion-webui,148290,ANTONIOPSD,"Murcia, Spain",Murcia,Spain,37.9893044,-1.1320073
stable-diffusion-webui,148290,AndrewRyanChama,North Atlantic Ocean,North Atlantic Ocean,North Atlantic Ocean,35.746512,-39.462891
stable-diffusion-webui,148290,demiurge-ash,Russia,Moscow,Russia,61.52401,105.318756
stable-diffusion-webui,148290,zopieux,Switerzland,Switzerland,Switzerland,46.818188,8.227511999999999
stable-diffusion-webui,148290,aljungberg,"London, UK",London,United Kingdom,51.5072178,-0.1275862
stable-diffusion-webui,148290,offshore,Russian Federation,Russia,Russian Federation,61.52401,105.318756
stable-diffusion-webui,148290,alexhegit,"Shanghai, China",Shanghai,China,31.230416,121.473701
stable-diffusion-webui,148290,48design,Germany,Germany,Germany,51.165691,10.451526
stable-diffusion-webui,148290,layer26,Somewhere in Republic of Korea,South Korea,South Korea,35.907757,127.766922
stable-diffusion-webui,148290,florianchrometz,Germany,Germany,Germany,51.165691,10.451526
stable-diffusion-webui,148290,codefionn,Germany,Germany,Germany,51.165691,10.451526
stable-diffusion-webui,148290,Blucknote,Russia,Moscow,Russia,61.52401,105.318756
stable-diffusion-webui,148290,eleurent,London,London,United Kingdom,51.5072178,-0.1275862
stable-diffusion-webui,148290,dylancl,Belgium,Belgium / Belgium / Belgium,Belgium,50.503887,4.469936
stable-diffusion-webui,148290,der3318,"Taipei, Taiwan",Taipei,Taiwan,25.0329694,121.5654177
stable-diffusion-webui,148290,DenkingOfficial,Yekaterinburg,Yekaterinburg,Russia,56.8430993,60.64540859999999
stable-diffusion-webui,148290,deciare,Canada,San Francisco,Canada,56.130366,-106.346771
stable-diffusion-webui,148290,dsesclei,NYC,City of New York,United States,40.7127753,-74.0059728
stable-diffusion-webui,148290,baumandm,"Indianapolis, IN",Indianapolis,India,39.76909,-86.158018
stable-diffusion-webui,148290,dnlmlr,Germany,Germany,Germany,51.165691,10.451526
stable-diffusion-webui,148290,dansgithubuser,Toronto,Toronto,Canada,43.653226,-79.3831843
stable-diffusion-webui,148290,cbrownstein-lambda,"Aliso Viejo, California, USA",Old Alder,United States,33.5684605,-117.7262981
stable-diffusion-webui,148290,clayne,Pacific Ocean,Pacific Ocean,Pacific Ocean,-8.783195,-124.508523
open-webui,77961,cheahjs,United Kingdom,United Kingdom,United Kingdom,55.378051,-3.435973
open-webui,77961,jannikstdl,"Munich, Bavaria, Germany",Munich,Germany,48.1351253,11.5819806
open-webui,77961,michaelpoluektov,Bristol,Bristol,United Kingdom,51.454513,-2.58791
open-webui,77961,KarlLee830,China,China,China,35.86166,104.195397
open-webui,77961,dannyl1u,"Vancouver, BC",Vancouver,BC,49.2827291,-123.1207375
open-webui,77961,asedmammad,"Tehran, Iran",Tehran,Iran,35.7218583,51.3346954
open-webui,77961,ThatOneCalculator,Los Angeles,Los Angeles,United States,34.0549076,-118.242643
open-webui,77961,que-nguyen,Vietnam,Vietnam,Vietnam,14.058324,108.277199
open-webui,77961,justinh-rahb,"Hamilton, Ontario, Canada",Hamilton,Canada,43.2557206,-79.8711024
open-webui,77961,roryeckel,Texas,Texas,United States,30.27272809999999,-97.7411016
open-webui,77961,anuraagdjain,"Helsinki, Finland",Helsinki,Finland,60.16985569999999,24.938379
open-webui,77961,crpietschmann,United States of America,Richmond,United States of America,38.7945952,-106.5348379
open-webui,77961,dnviti,Foligno,Foligno,Italy,42.9508135,12.7015053
open-webui,77961,duhow,Barcelona,Barcelona,Spain,41.3873974,2.168568
open-webui,77961,OriginalSimon,"Germany, Hagen",Germany,Hagen,51.3678219,7.463638599999999
open-webui,77961,TiancongLx,Beijing,Beijing,China,39.904211,116.407395
open-webui,77961,changchiyou,"Taipei City , Taiwan",Taipei City,Taiwan,25.0329636,121.5654268
open-webui,77961,buroa,"Chicago, IL",Chicago,United States,41.8781136,-87.6297982
open-webui,77961,explorigin,"Tulsa, Oklahoma, USA",Tulsa,United States,36.1551375,-95.989501
open-webui,77961,jyje,"Anyang & Seoul, South Korea",Anyang & Seoul,South Korea,37.3835395,126.934176
open-webui,77961,Carlos-err406,Cuba,Cuba,Cuba,21.521757,-77.781167
open-webui,77961,Fusseldieb,"Brazil, Goias",Brazil,Goias,-15.7050424,-49.3653149
open-webui,77961,kroonen,Canada,San Francisco,Canada,56.130366,-106.346771
open-webui,77961,sebdanielsson,Sweden,Sweden,Sweden,60.12816100000001,18.643501
open-webui,77961,sp301415,South Korea,Seoul,South Korea,35.907757,127.766922
open-webui,77961,coolaj86,"Provo, UT",Provo,United States,40.2335349,-111.6669789
open-webui,77961,perfectra1n,USA,United States,USA,38.7945952,-106.5348379
open-webui,77961,Patrice-Gaudicheau,France - Paris,France Paris,Singapore,48.8575475,2.3513765
open-webui,77961,yousecjoe,"FL, USA",FL,United States,30.4380786,-84.2806241
open-webui,77961,rragundez,Singapore,Singapore,Singapore,1.352083,103.819836
open-webui,77961,JohnTheNerd,"St. John's, NL",St. John's,Netherlands,47.5556097,-52.7452511
open-webui,77961,juananpe,"Irun, Guipuzcoa",Irun,Guipuzcoa,43.3381465,-1.7888495
open-webui,77961,Nowheresly,Luxembourg,Luxembourg,Luxembourg,49.815273,6.129582999999999
open-webui,77961,bjornjorgensen,"Ålesund, Norway",Alesund,Norway,62.47222840000001,6.149482
open-webui,77961,tarmst,"College Park, Maryland",College Park,Maryland,38.9896967,-76.93776
open-webui,77961,Maximilian-Pichler,"Vienna, Austria",Vienna,Austria,48.20806959999999,16.3713095
open-webui,77961,t0ny-d3v,Oradea,Oradea,Romania,47.04650050000001,21.9189438
open-webui,77961,zabirauf,"Seattle, WA",Seattle,United States,47.6061389,-122.3328481
open-webui,77961,Yash-1511,India,India,India,20.593684,78.96288
open-webui,77961,bo3bdo,Bahrain,Bahrain Island,Bahrain,26.0667,50.5577
open-webui,77961,aindriu80,Ireland,Ireland,Ireland,53.77975540000001,-7.3055309
open-webui,77961,AnthonyCucci,New Jersey,New Jersey,United States,40.7315591,-74.1744228
open-webui,77961,SunnyySachdeva,India,India,India,20.593684,78.96288
open-webui,77961,kiosion,"Toronto, ON",Toronto,ON,43.653226,-79.3831843
open-webui,77961,candidosales,"Kitchener, Ontario, Canada",Kitchener,Canada,43.4516395,-80.4925337
open-webui,77961,feynmanliang,Berkeley,Berkeley,United States,37.8715226,-122.273042
open-webui,77961,Joakim-T,Stockholm. Sweden,Stockholm,Sweden,59.3327036,18.0656255
open-webui,77961,vinsdragonis,"Bangalore, India",Bangalore,India,12.9715987,77.5945627
open-webui,77961,ZaibanAli,Frankfurt,Frankfurt am Main,Germany,50.1109221,8.6821267
open-webui,77961,yeahdongcn,"Beijing, China",Beijing,China,39.904211,116.407395
open-webui,77961,braveokafor,Malta,Malta,Malta,35.937496,14.375416
open-webui,77961,iidx,"Gyeonggi, South Korea",Gyeonggi,South Korea,37.4142849,127.4681396
open-webui,77961,lucasew,Santa Helena - PR,Saint Helena,Brazil,-24.859031,-54.3345076
open-webui,77961,andrewbbaek,Canada,San Francisco,Canada,56.130366,-106.346771
open-webui,77961,diwakar-s-maurya,Delhi,Delhi,India,28.6139298,77.2088282
open-webui,77961,kyunwang,Amsterdam,Amsterdam,The Netherlands,52.3675734,4.9041389
open-webui,77961,taylorwilsdon,New York City,City of New York,United States,40.7127753,-74.0059728
open-webui,77961,DucNgn,Canada,San Francisco,Canada,56.130366,-106.346771
open-webui,77961,simonaszilinskas,France,France,France,46.227638,2.213749
open-webui,77961,therohitdas,"Uttarpara, India",Uttarpara,India,22.6700938,88.3354998
open-webui,77961,Naufal05R,"West Java, Indonesia.",The Greatness,Indonesia.,-6.3102117,106.9532337
open-webui,77961,engineeringpatrick,"Montreal, Canada",Montreal,Canada,45.5018869,-73.5673919
open-webui,77961,PeterDaveHello,"Taiwan, R.O.C.",Taiwan,R.O.C,23.69781,120.960515
open-webui,77961,cloudxabide,"Washington, DC",Washington,DC,38.9071923,-77.0368707
open-webui,77961,zhaofengli,"Salt Lake City, UT",Salt Lake City,United States,40.7605601,-111.8881397
open-webui,77961,shirayu,Japan,Japan,Japan,36.204824,138.252924
open-webui,77961,Youggls,Shanghai China,Shanghai,China,31.230416,121.473701
open-webui,77961,XingjianXie,Beijing,Beijing,China,39.904211,116.407395
open-webui,77961,daniel-code,Taiwan,Taiwan,Taiwan,23.69781,120.960515
open-webui,77961,samuelskottenborg,Denmark,Denmark,Denmark,56.26392,9.501785
open-webui,77961,sammcj,"Melbourne, Australia",Melbourne,Australia,-37.8136276,144.9630576
open-webui,77961,sakiphan,Turkey,Türkiye,Turkey,38.963745,35.243322
open-webui,77961,s-sajid-ali,"New York, NY",New York,United States,40.7127753,-74.0059728
open-webui,77961,Cyb4Black,"Lübeck, Germany",Lübeck,Germany,53.8654673,10.6865593
open-webui,77961,shing100,Republic of Korea,Seoul,Republic of Korea,35.907757,127.766922
open-webui,77961,Adhithya03,India,India,India,20.593684,78.96288
open-webui,77961,Slayingripper,"Nicosia,Cyprus ",Nicosia,Cyprus,35.1855659,33.38227639999999
open-webui,77961,vaayne,Beijing,Beijing,China,39.904211,116.407395
open-webui,77961,insoutt,Ecuador,Our Lady of the Rosary of Pompeii of Puyo,Ecuador,-1.831239,-78.183406
open-webui,77961,amirsubhi,"Kuala Lumpur, Malaysia",Kuala Lumpur,Malaysia,3.1319197,101.6840589
open-webui,77961,helmanofer,Israel,Israel,Israel,31.046051,34.851612
open-webui,77961,JoaoCostaIFG,Portugal,Portugal,Portugal,39.39987199999999,-8.224454
open-webui,77961,HaldiH,France,France,France,46.227638,2.213749
open-webui,77961,peperunas,London,London,United Kingdom,51.5072178,-0.1275862
open-webui,77961,erickgodev,Brazil,Brazil,Brazil,-14.235004,-51.92528
open-webui,77961,domsleee,Sydney,Sydney,Australia,-33.8688197,151.2092955
open-webui,77961,elsatch,Madrid,Madrid,Spain,40.41672790000001,-3.7032905
open-webui,77961,Arthur2500,"Constance, Germany",Constance,Germany,47.6779808,9.1736741
open-webui,77961,Bazsalanszky,"Budapest, Hungary",Budapest,Hungary,47.497912,19.040235
open-webui,77961,bkakilli,USA,United States,USA,38.7945952,-106.5348379
open-webui,77961,nickovs,"Boulder, CO, USA",Boulder,United States,40.0189728,-105.2747406
open-webui,77961,mslinn,"Montreal, Canada",Montreal,Canada,45.5018869,-73.5673919
open-webui,77961,RocketRider,Germany,Germany,Germany,51.165691,10.451526
open-webui,77961,srizon,"Dhaka, Bangladesh",Dhaka,Bangladesh,23.804093,90.4152376
open-webui,77961,flexchar,"Copenhagen, Denmark",Copenhagen,DK,55.6760968,12.5683371
open-webui,77961,luisbrandao,Brazil,Brazil,Brazil,-14.235004,-51.92528
open-webui,77961,KodeurKubik,Germany,Germany,Germany,51.165691,10.451526
open-webui,77961,jmfirth,Indiana,Indiana,United States,39.767143,-86.1617619
open-webui,77961,jrespeto,Florida,Florida,United States,30.4380786,-84.2806241
open-webui,77961,joequant,Hong Kong,Hong Kong,China,22.3193039,114.1693611
open-webui,77961,vishwamartur,Bengaluru,Bengaluru,India,12.9715987,77.5945627
open-webui,77961,srajangarg,Mumbai,Mumbai Suburban,India,19.0759837,72.8776559
open-webui,77961,songritk,Callsign : E25KTN | Thailand ,Thailand,Thailand,15.870032,100.992541
open-webui,77961,SleepyYui,Austria,Austria,Austria,47.516231,14.550072
open-webui,77961,silverriver,Beijing,Beijing,China,39.904211,116.407395
open-webui,77961,YasushikoX,USA,United States,USA,38.7945952,-106.5348379
open-webui,77961,karaketir16,Ankara,Ankara,Türkiye,39.9333635,32.8597419
open-webui,77961,PierreMesure,Stockholm,Stockholm,Sweden,59.3327036,18.0656255
open-webui,77961,PkmX,"Taipei, Taiwan",Taipei,Taiwan,25.0329694,121.5654177
open-webui,77961,drupol,Belgium,Belgium / Belgium / Belgium,Belgium,50.503887,4.469936
open-webui,77961,raju249,Mumbai,Mumbai Suburban,India,19.0759837,72.8776559
open-webui,77961,the-c0d3br34k3r,Canada,San Francisco,Canada,56.130366,-106.346771
open-webui,77961,robbie-cahill,"Victoria, Australia",Victoria,Australia,-36.9847807,143.3906074
open-webui,77961,robertpiosik,"Poznan, Poland",Poznan,Poland,52.40567859999999,16.9312766
open-webui,77961,RobinBially,Düsseldorf,Düsseldorf,Germany,51.2230411,6.7824545
open-webui,77961,sak4guardian,United Kingdom,United Kingdom,United Kingdom,55.378051,-3.435973
open-webui,77961,Mulugruntz,"Amsterdam, NL",Amsterdam,Netherlands,52.3675734,4.9041389
open-webui,77961,saravanan30erd,UAE,Dubai,UAE,23.424076,53.847818
open-webui,77961,ScribblerCoder,Jordan,Amman,Jordan,30.585164,36.238414
open-webui,77961,adan89lion,"Seoul, Republic of Korea",Seoul,Republic of Korea,37.550263,126.9970831
open-webui,77961,seokho-son,South Korea,Seoul,South Korea,35.907757,127.766922
open-webui,77961,zeroxs,"Pittsburgh, PA",Pittsburgh,United States,40.4386612,-79.9972352
open-webui,77961,Shiyinq,Indonesia,Indonesia,Indonesia,-0.789275,113.921327
open-webui,77961,Lutherwaves,Stara Zagora,Stara Zagora,Bulgaria,42.4257769,25.6344644
open-webui,77961,mkhludnev,"Saint-Pete, Russia",Saint-Pete,Russia,59.9310584,30.3609097
open-webui,77961,noczero,"Medan, Indonesia",While,Indonesia,3.5951956,98.6722227
open-webui,77961,ntimo,Germany,Germany,Germany,51.165691,10.451526
open-webui,77961,le-ross,Canada,San Francisco,Canada,56.130366,-106.346771
open-webui,77961,ashm-dev,Dagestan,Dagestan,Russia,42.14318859999999,47.0949799
open-webui,77961,shivaraj-bh,Bengaluru,Bengaluru,India,12.9715987,77.5945627
open-webui,77961,zoupingshi,Taiwan,Taiwan,Taiwan,23.69781,120.960515
open-webui,77961,cevheri,Istanbul,Istanbul,Türkiye,41.0082376,28.9783589
open-webui,77961,erics118,United States,United States,United States,38.7945952,-106.5348379
open-webui,77961,i0ntempest,"Scarborough, ON, Canada",Scarborough,Canada,43.7764258,-79.2317521
open-webui,77961,nitrodude,Canada,San Francisco,Canada,56.130366,-106.346771
open-webui,77961,ihavecoke,Chengdu,Cheng Du,United States,30.5722599,104.0665099
open-webui,77961,jmtatsch,Munich,Munich,Germany,48.1351253,11.5819806
open-webui,77961,derek-palmer,"Rochester, NY",Rochester,United States,43.15657789999999,-77.6088465
open-webui,77961,dangminhduc1101,"Vancouver, BC",Vancouver,BC,49.2827291,-123.1207375
open-webui,77961,mr-raw,Norway,Trondheim,Norway,60.47202399999999,8.468945999999999
open-webui,77961,excho0,"Jerusalem, IL",Jerusalem,United States,31.768319,35.21371
open-webui,77961,nodomain,"Nuremberg, Germany",Nuremberg,Germany,49.45428810000001,11.0745641
open-webui,77961,ching-kuo,Tokyo,Tokyo,Japan,35.6764225,139.650027
open-webui,77961,aqiray,"Ankara, Turkey",Ankara,Turkey,39.9333635,32.8597419
open-webui,77961,chamburr,Singapore,Singapore,Singapore,1.352083,103.819836
open-webui,77961,ishiland,USA,United States,USA,38.7945952,-106.5348379
open-webui,77961,OhMyMndy,"Antwerp, Belgium",Antwerp,Belgium,51.2199302,4.414990299999999
open-webui,77961,albinvar,"Kerala, India",Kerala,India,10.1631526,76.64127119999999
open-webui,77961,alexgleason,Texas,Texas,United States,30.27272809999999,-97.7411016
open-webui,77961,Alex1607,Germany,Germany,Germany,51.165691,10.451526
open-webui,77961,alexandregodard,"France, Sophia-Antipolis / Monaco",France,Sophia-Antipolis / Monaco,43.6163539,7.0552218
open-webui,77961,vertago1,"Dallas, TX",Dallas,United States,32.7766642,-96.7969879
open-webui,77961,afritzler,"Heidelberg, Germany",Heidelberg,Germany,49.3987524,8.6724335
open-webui,77961,baptistecs,Stockholm,Stockholm,Sweden,59.3327036,18.0656255
open-webui,77961,ben-z,Canada,San Francisco,Canada,56.130366,-106.346771
open-webui,77961,cdgco,Oregon,Oregon,United States,45.5154502,-122.6793507
open-webui,77961,ChasLui,"Beijing, China",Beijing,China,39.904211,116.407395
open-webui,77961,ConnorsApps,Fort Wayne IN,Fort Wayne,United States,41.0794759,-85.1362929
open-webui,77961,darlanalves,"Amsterdam, NL",Amsterdam,Netherlands,52.3675734,4.9041389
open-webui,77961,short-circuit,Switzerland,Switzerland/Switzerland/Switzerland/Swiss,Switzerland,46.818188,8.227511999999999
open-webui,77961,marvinvr,"Baden, Switzerland",Baden,Switzerland,47.47288,8.30809
open-webui,77961,Mavyre,"Toulouse, France",Toulouse,France,43.6048462,1.442848
open-webui,77961,msurma,Poland,Poland,Poland,51.919438,19.145136
open-webui,77961,bernadinm,"San Francisco, California",San Francisco,California,37.7749295,-122.4194155
open-webui,77961,Mistrick,Tomsk,Tomsk region,Russia,56.4884295,84.9480469
open-webui,77961,mafzaal,TX,Austin,United States,30.27272809999999,-97.7411016
open-webui,77961,muhac,"Toronto, Ontario, Canada",Toronto,Canada,43.653226,-79.3831843
open-webui,77961,nachogmd,Madrid,Madrid,Spain,40.41672790000001,-3.7032905
open-webui,77961,superzazu,France,France,France,46.227638,2.213749
open-webui,77961,JEleniel,US,United States,US,38.7945952,-106.5348379
open-webui,77961,JamesClarke7283,"United Kingdom, England, Kent",United Kingdom,Kent,51.0928319,0.8392470999999999
open-webui,77961,Jasurbek99,"Turkmenistan, Ashgabat",Turkmenistan,Ashgabat,37.9600766,58.32606289999999
open-webui,77961,josx,"Buenos Aires, Argentina",Buenos Aires,Argentina,-34.6036844,-58.3815591
open-webui,77961,qrkourier,United States,United States,United States,38.7945952,-106.5348379
open-webui,77961,khanh-alice,Ho Chi Minh City,Ho Chi Minh City,Vietnam,10.8230989,106.6296638
open-webui,77961,leobenkel,Luxembourg,Luxembourg,Luxembourg,49.815273,6.129582999999999
open-webui,77961,Lhemamou,Paris,Paris,France,48.8575475,2.3513765
open-webui,77961,liorkesos,"Deleware , United States",Deleware,United States,39.7435669,-75.5456929
open-webui,77961,jasinliu,nanjing,Nanjing,China,32.0583799,118.79647
open-webui,77961,liuzhch1,Shanghai,Shanghai,China,31.230416,121.473701
open-webui,77961,luochen1990,"China, Hangzhou",China,Hangzhou,30.2741499,120.15515
open-webui,77961,LuyiTian,China,China,China,35.86166,104.195397
open-webui,77961,maxdyy,"Milan, Italy",Milan,Italy,45.468503,9.1824027
supabase,77895,joshenlim,Singapore,Singapore,Singapore,1.352083,103.819836
supabase,77895,saltcod,Newfoundland,St. John's,Newfoundland,54.2730918,-61.7387586
supabase,77895,alaister,Singapore,Singapore,Singapore,1.352083,103.819836
supabase,77895,fsansalvadore,Italy,Italy,Italy,41.87194,12.56738
supabase,77895,awalias,Singapore,Singapore,Singapore,1.352083,103.819836
supabase,77895,inian,Singapore,Singapore,Singapore,1.352083,103.819836
supabase,77895,dshukertjr,Tokyo,Tokyo,Japan,35.6764225,139.650027
supabase,77895,kevcodez,SIngapore,Singapore,SIngapore,1.352083,103.819836
supabase,77895,ivasilov,"Skopje, Macedonia",Skopje,Macedonia,41.9981294,21.4254355
supabase,77895,kangmingtay,Singapore,Singapore,Singapore,1.352083,103.819836
supabase,77895,Hallidayo,United Kingdom,United Kingdom,United Kingdom,55.378051,-3.435973
supabase,77895,sweatybridge,Singapore,Singapore,Singapore,1.352083,103.819836
supabase,77895,J0,Singapore,Singapore,Singapore,1.352083,103.819836
supabase,77895,thorwebdev,Singapore,Singapore,Singapore,1.352083,103.819836
supabase,77895,w3b6x9,"New York, NY",New York,United States,40.7127753,-74.0059728
supabase,77895,hf,"Skopje, Republic of North Macedonia",Skopje,Republic of North Macedonia,41.9981294,21.4254355
supabase,77895,jordienr,"Palma, Balearic Islands, Spain",Palma,Spain,39.5726541,2.6568551
supabase,77895,olirice,USA,United States,USA,38.7945952,-106.5348379
supabase,77895,silentworks,"London, UK",London,United Kingdom,51.5072178,-0.1275862
supabase,77895,soedirgo,Singapore,Singapore,Singapore,1.352083,103.819836
supabase,77895,mansueli,Maringa,Maringa,Brazil,-23.4209995,-51.9330558
supabase,77895,loong,Singapore,Singapore,Singapore,1.352083,103.819836
supabase,77895,laktek,"Sydney, Australia",Sydney,Australia,-33.8688197,151.2092955
supabase,77895,pucho,Montevideo,Montevideo,Uruguay,-34.9055016,-56.1851147
supabase,77895,jan-tennert,"Germany, BW near Stuttgart",Germany,BW near Stuttgart,48.7758459,9.1829321
supabase,77895,dijonmusters,Australia,Melbourne,Australia,-25.274398,133.775136
supabase,77895,thebengeu,Singapore,Singapore,Singapore,1.352083,103.819836
supabase,77895,burggraf,"Paso Robles, California, USA",Paso Robles,United States,35.6368759,-120.6545022
supabase,77895,kamilogorek,"Krakow, Poland",Cracow,Poland,50.06465009999999,19.9449799
supabase,77895,monicakh,"Beirut, Lebanon",Beirut,Lebanon,33.8937913,35.5017767
supabase,77895,hieuwu,Vietnam,Vietnam,Vietnam,14.058324,108.277199
supabase,77895,filipecabaco,Lisbon,Lisbon,Portugal,38.7222524,-9.1393366
supabase,77895,ykdojo,Vancouver,Vancouver,Canada,49.2827291,-123.1207375
supabase,77895,michelp,"Portland, OR",Portland,United States,45.515232,-122.6783853
supabase,77895,ruggi99,Italy,Italy,Italy,41.87194,12.56738
supabase,77895,kishanhitk,Bihar,Patna,Bihar,25.9644427,85.2722472
supabase,77895,pashkinelfe,Georgia,Tbilisi,Georgia,42.315407,43.35689199999999
supabase,77895,avallete,France/Paris,France Paris,Singapore,48.8575475,2.3513765
supabase,77895,SaxonF,Australia,Melbourne,Australia,-25.274398,133.775136
supabase,77895,encima,"Helsinki, Finland",Helsinki,Finland,60.16985569999999,24.938379
supabase,77895,brandongregoryscott,"Lancaster, PA",Lancaster,United States,40.0403279,-76.3041833
supabase,77895,mikqi,"Jakarta, Indonesia",Jakarta,Indonesia,-6.1944491,106.8229198
supabase,77895,fenos,Uk,Oak,Central African Republic / Central African Republic,55.378051,-3.435973
supabase,77895,florian-lefebvre,France,France,France,46.227638,2.213749
supabase,77895,pcnc,Romania,Romania,Romania,45.943161,24.96676
supabase,77895,lyqht,Singapore,Singapore,Singapore,1.352083,103.819836
supabase,77895,dthyresson,"Boston, MA",Boston,United States,42.3555076,-71.0565364
supabase,77895,acupofjose,United States,United States,United States,38.7945952,-106.5348379
supabase,77895,jscyo,India,India,India,20.593684,78.96288
supabase,77895,imor,India,India,India,20.593684,78.96288
supabase,77895,andykenward,"London, UK",London,United Kingdom,51.5072178,-0.1275862
supabase,77895,pluwen,China,China,China,35.86166,104.195397
supabase,77895,m4salah,"Cairo, Egypt",Cairo,Egypt,30.0444196,31.2357116
supabase,77895,KevinBrolly,"Glasgow, Scotland",Glasgow,Scotland,55.86167039999999,-4.2583345
supabase,77895,carlosstenzel,Brazil,Brazil,Brazil,-14.235004,-51.92528
supabase,77895,shandamengcheng,beijing,Beijing,China,39.904211,116.407395
supabase,77895,Khareayushh,India,India,India,20.593684,78.96288
supabase,77895,Anikets08,India,India,India,20.593684,78.96288
supabase,77895,hwr12,Atlanta,Atlanta,United States,33.7501275,-84.3885209
supabase,77895,samueldenzil,Pune,Pune City,India,18.5204303,73.8567437
supabase,77895,aminamos,Seattle,Seattle,United States,47.6061389,-122.3328481
supabase,77895,letanure,"Berlin, Germany",Berlin,Germany,52.52000659999999,13.404954
supabase,77895,Mohammed-Yasin-Mulla,"Karnataka, India",Karnataka,India,15.3172775,75.7138884
supabase,77895,bnjmnt4n,Singapore,Singapore,Singapore,1.352083,103.819836
supabase,77895,erondpowell,"Tulsa, OK",Tulsa,United States,36.1551375,-95.989501
supabase,77895,MisterJimson,Toronto,Toronto,Canada,43.653226,-79.3831843
supabase,77895,M4Tdev,"Warsaw, Poland",Warsaw,Poland,52.2296756,21.0122287
supabase,77895,AbhijeetBiswal,india,India,india,20.593684,78.96288
supabase,77895,Lan-Hekary,Egypt,Egypt,Egypt,26.820553,30.802498
supabase,77895,saloni-dhiwise,Letter,Letter,India,21.1702401,72.83106070000001
supabase,77895,owlnai,Spain,Spain,Spain,40.46366700000001,-3.74922
supabase,77895,peterp,Berlin,Berlin,Germany,52.52000659999999,13.404954
supabase,77895,AbhijeetBiswalCodes,India,India,India,20.593684,78.96288
supabase,77895,3ru,"Los Angeles, Tokyo",Los Angeles,Tokyo,34.0549076,-118.242643
supabase,77895,nwaliaez,India,India,India,20.593684,78.96288
supabase,77895,Bhavyawahie,New Delhi,New Delhi,India,28.6139298,77.2088282
supabase,77895,rohandebsarkar,"Kolkata, West Bengal, India",Kolkata,India,22.5743545,88.3628734
supabase,77895,zernonia,Malaysia,Malaysia,Malaysia,4.210484,101.975766
supabase,77895,slorber,Paris,Paris,France,48.8575475,2.3513765
supabase,77895,one-aalam,"Delhi, India",Delhi,India,28.6139298,77.2088282
supabase,77895,sureshdsk,Chennai,Chennai,India,13.0843007,80.2704622
supabase,77895,gefgu,Brazil,Brazil,Brazil,-14.235004,-51.92528
supabase,77895,yeskunall,Ottawa,Ottawa,Canada,45.4200572,-75.7003397
supabase,77895,mikeridley,DC Metro,METRO,Bogotá Capital District - Municipality,38.9071923,-77.0368707
supabase,77895,fenix-hub,Bari - Italy,They were,Italy,41.1171432,16.8718715
supabase,77895,ssudaraka,"Colombo, Sri Lanka",Colombo,Sri Lanka,6.9270786,79.861243
supabase,77895,tresende,Belo Horizonte,Belo Horizonte,Brazil,-19.919052,-43.9386685
supabase,77895,askdkc,Japan,Japan,Japan,36.204824,138.252924
supabase,77895,TokenChingy,"Perth, Western Australia",Perth,Western Australia,-31.9513993,115.8616783
supabase,77895,illuzan,India,India,India,20.593684,78.96288
supabase,77895,necatiozmen,San Francisco,San Francisco,United States,37.7749295,-122.4194155
supabase,77895,hawkcookie,"Tokyo, Japan",Tokyo,Japan,35.6764225,139.650027
supabase,77895,vonovak,Czech Republic,Prague,Czech Republic,49.81749199999999,15.472962
supabase,77895,imskr,"Berlin, Germany",Berlin,Germany,52.52000659999999,13.404954
supabase,77895,ChronSyn,UK,Oak,Central African Republic / Central African Republic,55.378051,-3.435973
supabase,77895,bdlukaa,Brazil,Brazil,Brazil,-14.235004,-51.92528
supabase,77895,CharlesKasasira,"Kampala, Uganda",Kampala,Uganda,0.3151692,32.5816313
supabase,77895,Chensokheng,Cambodia,Kingdom of Cambodia,Cambodia,12.565679,104.990963
supabase,77895,chrisfisher,"Auckland, NZ",Auckland,NZ,-36.8508827,174.7644881
supabase,77895,liambirkin,"Bendigo, Australia",Bendigo,Australia,-36.7596196,144.2785764
supabase,77895,k11q,Malaysia,Malaysia,Malaysia,4.210484,101.975766
supabase,77895,jgoux,"Lyon, France",Lyon,France,45.764043,4.835659
supabase,77895,joneidejohnsen,"Oslo, Norway",Oslo,Norway,59.9138688,10.7522454
supabase,77895,jacobhq,London,London,United Kingdom,51.5072178,-0.1275862
supabase,77895,doublethink,New Zealand,New Zealand / Aotearoa,New Zealand,-40.900557,174.885971
supabase,77895,timsonner,United States,United States,United States,38.7945952,-106.5348379
supabase,77895,SoumyadeepOSD,Earth:/India/Kolkata/Salt Lake ,Bidhannagar,India,22.5796842,88.414312
supabase,77895,alfredlua,Singapore,Singapore,Singapore,1.352083,103.819836
supabase,77895,Vinzent03,"Aachen, Germany",Aachen,Germany,50.7753455,6.083886800000001
supabase,77895,zachblume,NYC,City of New York,United States,40.7127753,-74.0059728
supabase,77895,nattui,"Palo Alto, California, United States",Palo Alto,United States,37.4418834,-122.1430195
supabase,77895,mdjohns,"baltimore, md",baltimore,md,39.2905023,-76.6104072
supabase,77895,jacoblee93,San Francisco,San Francisco,United States,37.7749295,-122.4194155
supabase,77895,hipdev,Medellin,Medellin,Colombia,6.2476376,-75.5658153
supabase,77895,GeekyADAMS,"Lagos, Nigeria.",Lagos,Nigeria.,6.5243793,3.3792057
supabase,77895,alabhyajindal,"Bath, UK",Bath,United Kingdom,51.3781018,-2.3596827
supabase,77895,Sonichigo,Bangalore,Bengaluru,India,12.9715987,77.5945627
supabase,77895,brunokrebs,"Porto Alegre, RS - Brazil",Porto Alegre,RS - Brazil,-30.0368176,-51.2089887
supabase,77895,cassidoo,"Chicago, IL",Chicago,United States,41.8781136,-87.6297982
supabase,77895,danryland,London,London,United Kingdom,51.5072178,-0.1275862
supabase,77895,adiologydev,"New Delhi, India",New Delhi,India,28.6139298,77.2088282
supabase,77895,yustarandomname,The Netherlands,The Netherlands,The Netherlands,52.132633,5.291265999999999
supabase,77895,gitryder,"Mumbai, India",Mumbai,India,19.0759837,72.8776559
supabase,77895,DidoMarchet,Italy,Italy,Italy,41.87194,12.56738
supabase,77895,RyanTippsTX,"Austin, TX",Austin,United States,30.267153,-97.7430608
supabase,77895,ryanpeach,"Atlanta, GA",Atlanta,United States,33.7501275,-84.3885209
supabase,77895,rubensdemelo,"Sofia, Bulgaria",Sofia,Bulgaria,42.6977082,23.3218675
supabase,77895,rishabhpoddar,"Mumbai, India",Mumbai,India,19.0759837,72.8776559
supabase,77895,pedrovrima,Bocaina of Minas,Bocaina of Minas,Brazil,-22.1683629,-44.3952834
supabase,77895,nokome,New Zealand,New Zealand / Aotearoa,New Zealand,-40.900557,174.885971
supabase,77895,EntenKoeniq-OLD,Germany,Germany,Germany,51.165691,10.451526
supabase,77895,mudssrali,"Riyadh, KSA",Riyadh,KSA,24.7135517,46.6752957
supabase,77895,jkenley,Haiti,Haiti,Haiti,18.971187,-72.285215
supabase,77895,sannanansari,India,India,India,20.593684,78.96288
supabase,77895,sdnts,NYC,City of New York,United States,40.7127753,-74.0059728
supabase,77895,suciptoid,Indonesia,Indonesia,Indonesia,-0.789275,113.921327
supabase,77895,TomLisankie,NYC,City of New York,United States,40.7127753,-74.0059728
supabase,77895,kaniaorzel,Wroclaw,Wroclaw,Poland,51.10929480000001,17.0386019
supabase,77895,yangshun,Singapore,Singapore,Singapore,1.352083,103.819836
supabase,77895,YashKandalkar,India,India,India,20.593684,78.96288
supabase,77895,alon710,Tel Aviv,Tel Aviv-Yafo,Israel,32.0852999,34.78176759999999
supabase,77895,mchristofides,"Guildford, UK",Guildford,United Kingdom,51.23622,-0.570409
supabase,77895,MiryangJung,Republic of Korea,Seoul,Republic of Korea,35.907757,127.766922
supabase,77895,devnamrits,"Pune, Maharashtra",Pune,Maharashtra,18.5204303,73.8567437
supabase,77895,e0,"Gothenburg, Sweden",Gothenburg,Sweden,57.70887,11.97456
supabase,77895,enesinan,Antalya/Turkey,Antalya,Türkiye,36.8968908,30.7133233
supabase,77895,geromegrignon,France,France,France,46.227638,2.213749
supabase,77895,njmsaikat,"Dhaka, Bangladesh",Dhaka,Bangladesh,23.804093,90.4152376
supabase,77895,pqoqubbw,"Hungary, Budapest",Hungary,Budapest,47.497912,19.040235
supabase,77895,za-arthur,Berlin,Berlin,Germany,52.52000659999999,13.404954
supabase,77895,beeequeue,"Stockholm, Sweden",Stockholm,Sweden,59.3327036,18.0656255
supabase,77895,larbish,Paris,Paris,France,48.8575475,2.3513765
supabase,77895,bfzli,North Macedonia,North Macedonia,North Macedonia,41.608635,21.745275
supabase,77895,chrischandler,Singapore,Singapore,Singapore,1.352083,103.819836
supabase,77895,CBID2,New York,City of New York,United States,40.7127753,-74.0059728
supabase,77895,daiangan,Santo Domingo,Saint Dominic of Guzman,Dominican Republic,18.4626178,-69.9360924
supabase,77895,dcousens,Australia,Melbourne,Australia,-25.274398,133.775136
supabase,77895,activenode,Germany,Germany,Germany,51.165691,10.451526
supabase,77895,driaug,Belgium,Belgium / Belgium / Belgium,Belgium,50.503887,4.469936
supabase,77895,orichh,"New York, NY",New York,United States,40.7127753,-74.0059728
supabase,77895,mhartington,Rhode Island,Rhode Island,United States,41.8318399,-71.4162545
supabase,77895,michaelessiet,"Lagos, Nigeria",Lagos,Nigeria,6.5243793,3.3792057
supabase,77895,gomflo,"Monterrey, Mexico",Monterrey,Mexico,25.6866142,-100.3161126
supabase,77895,astr0sl0th,London,London,United Kingdom,51.5072178,-0.1275862
supabase,77895,fangmarks,North Germany,North,Germany,51.165691,10.451526
supabase,77895,Marviel,"Knoxville, TN",Knoxville,United States,35.965266,-83.923304
supabase,77895,maysam,"Basel, Switzerland",Basel,Switzerland,47.5595986,7.5885761
supabase,77895,MayankVir,Gurgaon,Gurgaon,India,28.4594965,77.0266383
supabase,77895,mateoguzmana,"Leiden, Netherlands",To lead,Netherlands,52.16361879999999,4.4802444
supabase,77895,skarbgud,"Seoul, Republic of Korea",Seoul,Republic of Korea,37.550263,126.9970831
supabase,77895,Than-DE,"Siegen, DE",Siegen,Germany,50.8838492,8.020959099999999
supabase,77895,justifiedfalsebeliefs,Seattle,Seattle,United States,47.6061389,-122.3328481
supabase,77895,quick007,"San Francisco, CA",San Francisco,Canada,37.7749295,-122.4194155
supabase,77895,kylerummens,Salt Lake City,Salt Lake City,United States,40.7605601,-111.8881397
supabase,77895,KristofKekesi,Hungary,Budapest,Hungary,47.162494,19.503304
supabase,77895,jonshung,"Ho Chi Minh City, Vietnam",Ho Chi Minh City,Vietnam,10.8230989,106.6296638
supabase,77895,kaleabmelkie,"Addis Ababa, Ethiopia",Addis Ababa,Ethiopia,9.0191936,38.7524635
supabase,77895,jshrake,"Los Angeles, CA.",Los Angeles,THAT.,34.0549076,-118.242643
supabase,77895,Hamaad-Siddiqui,"Lahore, Pakistan",Lahore,Pakistan,31.5203696,74.35874729999999
supabase,77895,jonathanstanley,"Knoxville, TN",Knoxville,United States,35.965266,-83.923304
supabase,77895,jduckles,"Dunedin, NZ",Dunedin,NZ,-45.8795455,170.5005957
supabase,77895,jdahdah,"Utrecht, Netherlands",Utrecht,Netherlands,52.09192549999999,5.1229572
supabase,77895,okxiaoliang4,"GuangZhou,China",GuangZhou,China,23.1290799,113.26436
supabase,77895,hbock-42,Paris,Paris,France,48.8575475,2.3513765
supabase,77895,konhi,"Zielona Gora, Poland",Zielona Góra,Poland,51.9356214,15.5061862
supabase,77895,Hugos68,Netherlands,The Netherlands,Netherlands,52.132633,5.291265999999999
supabase,77895,janbaykara,Glasgow,Glasgow,United Kingdom,55.86167039999999,-4.2583345
supabase,77895,timelessnesses,Thung Song School,5P79+6FH,80110,8.1630678,99.7187347
supabase,77895,RonanOD,"Halifax, Canada",Halifax,Canada,44.6508608,-63.5923256
supabase,77895,RiverPhillips,London,London,United Kingdom,51.5072178,-0.1275862
supabase,77895,rickypid,Italy,Italy,Italy,41.87194,12.56738
supabase,77895,ryscheng,"San Francisco, CA",San Francisco,Canada,37.7749295,-122.4194155
supabase,77895,RaglandCodes,India,India,India,20.593684,78.96288
supabase,77895,Prasad-Katkade,India,India,India,20.593684,78.96288
supabase,77895,p5quared,New York,City of New York,United States,40.7127753,-74.0059728
supabase,77895,Parables,Ghana,Ghana,Ghana,7.946527,-1.023194
supabase,77895,onurusluca,Japan,Japan,Japan,36.204824,138.252924
supabase,77895,NeoFoxxo,Australia,Melbourne,Australia,-25.274398,133.775136
supabase,77895,Nabhag8848,India,India,India,20.593684,78.96288
supabase,77895,sa3dany,Riyadh,Riyadh,Mauritania,24.7135517,46.6752957
supabase,77895,Sang-minKIM,Seoul,Seoul Metropolitan City,korea,37.550263,126.9970831
supabase,77895,IcedTea2K,"Vancouver, British Columbia",Vancouver,British Columbia,49.2827291,-123.1207375
supabase,77895,mihlali-jordan,South Africa,Cape Town,South Africa,-30.559482,22.937506
supabase,77895,cstockton,"Phoenix, AZ, USA",Phoenix,United States,33.4482266,-112.0776781
supabase,77895,coppinger,"Wellington, New Zealand",Wellington,New Zealand,-41.2923814,174.7787463
supabase,77895,jollygreenegiant,"Durham, NC",Durham,United States,35.9955684,-78.9002077
supabase,77895,buzzthedev,United Kingdom,United Kingdom,United Kingdom,55.378051,-3.435973
supabase,77895,bmpandrade,Portugal,Portugal,Portugal,39.39987199999999,-8.224454
supabase,77895,breadadams,"Murcia, Spain",Murcia,Spain,37.9893044,-1.1320073
supabase,77895,bobbyg603,"Providence, RI",Providence,United States,41.8245558,-71.414199
supabase,77895,Biki-das,"Assam, India",Assam,India,26.2006043,92.9375739
supabase,77895,arpitBhalla,"Bengaluru, India",Bengaluru,India,12.9715987,77.5945627
supabase,77895,AngeloAnolin,Canada,San Francisco,Canada,56.130366,-106.346771
supabase,77895,andymitch,"Seattle, WA",Seattle,United States,47.6061389,-122.3328481
supabase,77895,albertms10,Barcelona,Barcelona,Spain,41.3873974,2.168568
supabase,77895,Aerilym,"Melbourne, Australia",Melbourne,Australia,-37.8136276,144.9630576
supabase,77895,ftonato,"Lisbon, Portugal",Lisbon,Portugal,38.7222524,-9.1393366
supabase,77895,AdamGEmerson,"Arlington, TX",Arlington,United States,32.735687,-97.1080656
supabase,77895,abhinav-TB,chicago,Chicago,United States,41.8781136,-87.6297982
supabase,77895,abenezerBelachew,Canada,San Francisco,Canada,56.130366,-106.346771
supabase,77895,a0m0rajab,Turkey,Türkiye,Turkey,38.963745,35.243322
supabase,77895,armujahid,"Lahore, Pakistan",Lahore,Pakistan,31.5203696,74.35874729999999
supabase,77895,botxboom,New Delhi,New Delhi,India,28.6139298,77.2088282
supabase,77895,gdangelo,"Amsterdam, NL",Amsterdam,Netherlands,52.3675734,4.9041389
supabase,77895,ggarnhart,Brooklyn,Brooklyn,United States,40.6781784,-73.9441579
supabase,77895,GodderE2D,"VA, United States",VA,United States,37.538173,-77.4349083
supabase,77895,Giftea,"Lagos, Nigeria",Lagos,Nigeria,6.5243793,3.3792057
supabase,77895,georgemoon,paris / wellington,Wellington,France,48.8575475,2.3513765
supabase,77895,gentamura,"Tokyo, Japan",Tokyo,Japan,35.6764225,139.650027
supabase,77895,gavinharris-dev,"Sunshine Coast, QLD, Australia",Sunshine Coast,Australia,-26.65,153.066667
supabase,77895,fmaiabatista,Amsterdam,Amsterdam,The Netherlands,52.3675734,4.9041389
supabase,77895,frgfm,"Paris, FR",Paris,France,48.8575475,2.3513765
supabase,77895,grehnen,Linkoping,Linkoping,Sweden,58.41080700000001,15.6213727
supabase,77895,DmitryScaletta,Belarus,Minsk,Belarus,53.709807,27.953389
supabase,77895,dsukruth,"Bangalore,India",Bangalore,India,12.9715987,77.5945627
supabase,77895,Dhaiwat10,"Bangalore, India",Bangalore,India,12.9715987,77.5945627
supabase,77895,dev-shetty,"Mangalore, Karnataka, India",Mangalore,India,12.9141417,74.8559568
supabase,77895,davidshq,Georgia,Tbilisi,Georgia,42.315407,43.35689199999999
supabase,77895,DanielChuDC,singapore,Singapore,singapore,1.352083,103.819836
supabase,77895,Drakeoon,"Wroclaw, Poland",Wroclaw,Poland,51.10929480000001,17.0386019
supabase,77895,DaniDipp,Carinthia,Carinthia,Austria,46.722203,14.1805881
supabase,77895,nulfrost,"Toronto, Ontario",Toronto,Ontario,43.653226,-79.3831843
supabase,77895,ceIia,"Paris, France",Paris,France,48.8575475,2.3513765
generative-ai-for-beginners,71312,koreyspace,"Stockholm, Sweden ",Stockholm,Sweden,59.3327036,18.0656255
generative-ai-for-beginners,71312,john0isaac,"Cairo, Egypt",Cairo,Egypt,30.0444196,31.2357116
generative-ai-for-beginners,71312,yoshioterada,Japan,Japan,Japan,36.204824,138.252924
generative-ai-for-beginners,71312,glaucia86,Rio de Janeiro,Rio de Janeiro,Brazil,-22.9068467,-43.1728965
generative-ai-for-beginners,71312,carlotta94c,"Rome, Italy",Rome,Italy,41.8967068,12.4822025
generative-ai-for-beginners,71312,softchris,London,London,United Kingdom,51.5072178,-0.1275862
generative-ai-for-beginners,71312,nitya,NY,New York,United States,40.7127753,-74.0059728
generative-ai-for-beginners,71312,bmerkle,Germany,Germany,Germany,51.165691,10.451526
generative-ai-for-beginners,71312,Marcelasabogue,"Bogota, Colombia",Bogota,Colombia,4.710988599999999,-74.072092
generative-ai-for-beginners,71312,kinfey,China,China,China,35.86166,104.195397
generative-ai-for-beginners,71312,BethanyJep,Kenya,Nairobi,Kenya,-0.023559,37.906193
generative-ai-for-beginners,71312,paladique,"Brooklyn, NY",Brooklyn,United States,40.6781784,-73.9441579
generative-ai-for-beginners,71312,hyoshioka0128,Japan,Japan,Japan,36.204824,138.252924
generative-ai-for-beginners,71312,corradocavalli,Zurich,Zurich,Switzerland/Switzerland/Switzerland/Swiss,47.3768866,8.541694
generative-ai-for-beginners,71312,BackMountainDevil,Antarctica,Antarctica,Antarctica,-82.8627519,135
generative-ai-for-beginners,71312,infosatheesh2020,"Espoo, Finland",Espoo,Finland,60.2054911,24.6559001
generative-ai-for-beginners,71312,shahpreetk,"London, UK",London,United Kingdom,51.5072178,-0.1275862
generative-ai-for-beginners,71312,mreraser,"Suwon-si, Gyunggi-do, Korea.",Suwon-si,Korea.,37.2667603,127.0014613
generative-ai-for-beginners,71312,Inder24,Singapore,Singapore,Singapore,1.352083,103.819836
generative-ai-for-beginners,71312,microsoftopensource,"Redmond, WA",Redmond,United States,47.6739881,-122.121512
generative-ai-for-beginners,71312,doggy8088,"Taipei, Taiwan",Taipei,Taiwan,25.0329694,121.5654177
generative-ai-for-beginners,71312,rizwanshoukat3324,"Lahore, Punjab, Pakistan",Lahore,Pakistan,31.5203696,74.35874729999999
generative-ai-for-beginners,71312,amynic,UK,Oak,Central African Republic / Central African Republic,55.378051,-3.435973
generative-ai-for-beginners,71312,tsubakimoto,"Fukuoka, Japan",Fukuoka,Japan,33.5901838,130.4016888
generative-ai-for-beginners,71312,Younglina,hangzhou,Hangzhou,China,30.2741499,120.15515
generative-ai-for-beginners,71312,weareoutman,"Shenzhen, China",Shenzhen,China,22.5428599,114.05956
generative-ai-for-beginners,71312,abrilurena,Mexico,Mexico City,Mexico,23.634501,-102.552784
generative-ai-for-beginners,71312,WirelessLife,"Toronto, ON",Toronto,ON,43.653226,-79.3831843
generative-ai-for-beginners,71312,davidathompson,"Dallas, TX",Dallas,United States,32.7766642,-96.7969879
generative-ai-for-beginners,71312,diegoakechi,"Nuremberg, DE",Nuremberg,Germany,49.45428810000001,11.0745641
generative-ai-for-beginners,71312,JamesJang26,"New Haven, CT",New Haven,United States,41.308274,-72.9278835
generative-ai-for-beginners,71312,lapellaniz,"Raleigh, NC",Raleigh,United States,35.7795897,-78.6381787
generative-ai-for-beginners,71312,yourowndisaster09,"Chicago, Illinois",Chicago,Illinois,41.8781136,-87.6297982
generative-ai-for-beginners,71312,peterj,Redmond,Redmond,United States,47.6739881,-122.121512
generative-ai-for-beginners,71312,mikeirvingweb,Macclesfield,Macclesfield,United Kingdom,53.258663,-2.119287
generative-ai-for-beginners,71312,ChromaticRanger,"Bristol, UK",Bristol,United Kingdom,51.454513,-2.58791
generative-ai-for-beginners,71312,mbaiza27,Oregon ,Oregon,United States,45.5154502,-122.6793507
generative-ai-for-beginners,71312,lasr21,Mexico City,Mexico City,Mexico,19.4326077,-99.133208
generative-ai-for-beginners,71312,rohis06-aws,United States,United States,United States,38.7945952,-106.5348379
generative-ai-for-beginners,71312,skasturi,India,India,India,20.593684,78.96288
generative-ai-for-beginners,71312,VivekYadavOfficial,"Bengaluru, India",Bengaluru,India,12.9715987,77.5945627
generative-ai-for-beginners,71312,manekinekko,France,France,France,46.227638,2.213749
generative-ai-for-beginners,71312,moqimoqidea,Beijing,Beijing,China,39.904211,116.407395
generative-ai-for-beginners,71312,nachodieez,"Madrid, Spain",Madrid,Spain,40.41672790000001,-3.7032905
generative-ai-for-beginners,71312,august-hill,"Redmond, WA 98052",Redmond,United States,47.6701193,-122.118237
generative-ai-for-beginners,71312,bweissman,"Nuernberg, Germany",Nuernberg,Germany,49.45428810000001,11.0745641
generative-ai-for-beginners,71312,cmaneu,France,France,France,46.227638,2.213749
generative-ai-for-beginners,71312,gloveboxes,Sydney Australia,Sydney,Australia,-33.8688197,151.2092955
generative-ai-for-beginners,71312,dbroeglin,"Zurich Area, Switzerland",Zurich Area,Switzerland,47.3245853,8.5763494
generative-ai-for-beginners,71312,elbruno,"Toronto, Canada",Toronto,Canada,43.653226,-79.3831843
generative-ai-for-beginners,71312,EstebanDalelR,Colombia,Colombia,Colombia,4.570868,-74.297333
generative-ai-for-beginners,71312,fhinkel,"RTP, North Carolina",RTP,North Carolina,35.8991678,-78.8636402
generative-ai-for-beginners,71312,henriwoodcock,London,London,United Kingdom,51.5072178,-0.1275862
generative-ai-for-beginners,71312,Ishan-Kumar2,"New York, NY",New York,United States,40.7127753,-74.0059728
generative-ai-for-beginners,71312,jack-white9,"Melbourne, Australia",Melbourne,Australia,-37.8136276,144.9630576
generative-ai-for-beginners,71312,JianChuanting,"Hangzhou, China",Hangzhou,China,30.2741499,120.15515
generative-ai-for-beginners,71312,jitangupta,"Mumbai, India",Mumbai,India,19.0759837,72.8776559
generative-ai-for-beginners,71312,johnpapa,"Orlando, FL",Orlando,United States,28.5383832,-81.3789269
generative-ai-for-beginners,71312,ryuuzaki42,"Minas Gerais, Brazil",Minas Gerais,Brazil,-17.930178,-43.7908453
generative-ai-for-beginners,71312,kacperlukawski,"Cracow, Poland",Cracow,Poland,50.06465009999999,19.9449799
generative-ai-for-beginners,71312,feng19,"ZhuHai, China",ZhuHai,China,22.2708599,113.57666
generative-ai-for-beginners,71312,zkewal,Ahmedabad,Ahmedabad,India,23.022505,72.5713621
generative-ai-for-beginners,71312,douglarek,Singapore,Singapore,Singapore,1.352083,103.819836
generative-ai-for-beginners,71312,lucasm,Brazil,Brazil,Brazil,-14.235004,-51.92528
dify,71195,JohnJyong,SuZhou,Suzhou City,China,31.29833989999999,120.58319
dify,71195,bowenliang123,"Guangzhou, China",Guangzhou,China,23.1290799,113.26436
dify,71195,Yeuoly,People's republic of china,China,People's republic of china,35.86166,104.195397
dify,71195,hjlarry,Suzhou,Suzhou City,China,31.29833989999999,120.58319
dify,71195,yihong0618,China,China,China,35.86166,104.195397
dify,71195,JzoNgKVO,Suzhou,Suzhou City,China,31.29833989999999,120.58319
dify,71195,hwzhuhao,shenzhen/China,Shenzhen,China,22.5428599,114.05956
dify,71195,ZuzooVn,Vietnam,Vietnam,Vietnam,14.058324,108.277199
dify,71195,leslie2046,"Nanjing, China",Nanjing,China,32.0583799,118.79647
dify,71195,ZhouhaoJiang,"Suzhou,Jiangsu,China",Suzhou,China,31.29833989999999,120.58319
dify,71195,xuzuodong,"Hangzhou, China",Hangzhou,China,30.2741499,120.15515
dify,71195,yaoice,Shenzhen,Shenzhen,China,22.5428599,114.05956
dify,71195,MatriQ,"chengdu,china",chengdu,china,30.5722599,104.0665099
dify,71195,kurokobo,Japan,Japan,Japan,36.204824,138.252924
dify,71195,BenjaminX,"ChengDu, SiChuan, China.",ChengDu,China.,30.5722599,104.0665099
dify,71195,JunIce,SZ.China,Sichuan Province,China,22.5428599,114.05956
dify,71195,WTW0313,"Wuxi, China",Wuxi,China,31.4909899,120.31237
dify,71195,Nov1c444,China,China,China,35.86166,104.195397
dify,71195,soulteary,"Beijing, China",Beijing,China,39.904211,116.407395
dify,71195,fujita-h,"Tokyo, JAPAN",Tokyo,JAPAN,35.6764225,139.650027
dify,71195,Weaxs,"Beijing, China",Beijing,China,39.904211,116.407395
dify,71195,fdb02983rhy,Tokyo,Tokyo,Japan,35.6764225,139.650027
dify,71195,HanqingZ,"Shanghai, China",Shanghai,China,31.230416,121.473701
dify,71195,yuhao1118,"Durham, UK",Durham,United Kingdom,54.77525,-1.584852
dify,71195,jiaowoxiaobala,China,China,China,35.86166,104.195397
dify,71195,perzeuss,Germany,Germany,Germany,51.165691,10.451526
dify,71195,wangiii,GuangZhou,Guangzhou,China,23.1290799,113.26436
dify,71195,taowang1993,Vancouver,Vancouver,Canada,49.2827291,-123.1207375
dify,71195,yikayiyo,Beijing,Beijing,China,39.904211,116.407395
dify,71195,hellof20,Shanghai,Shanghai,China,31.230416,121.473701
dify,71195,HiChen404,hangzhou,Hangzhou,China,30.2741499,120.15515
dify,71195,fchange,"Shenzhen, China",Shenzhen,China,22.5428599,114.05956
dify,71195,quicksandznzn,Beijing,Beijing,China,39.904211,116.407395
dify,71195,y-omr,Japan,Japan,Japan,36.204824,138.252924
dify,71195,majian159,Fuzhou,Fuzhou,China,26.0742099,119.29647
dify,71195,euxx,"Chengdu, China",Chengdu,China,30.5722599,104.0665099
dify,71195,acelyc111,"Beijing, China",Beijing,China,39.904211,116.407395
dify,71195,GareArc,West Lafayette/USA; Suzhou/China,Unknown,West Lafayette/USA; Suzhou/China,40.4258686,-86.9080655
dify,71195,wststone,"Beijing, China",Beijing,China,39.904211,116.407395
dify,71195,mazyu36,Tokyo,Tokyo,Japan,35.6764225,139.650027
dify,71195,rerorero,Japan,Japan,Japan,36.204824,138.252924
dify,71195,aplio,Japan,Japan,Japan,36.204824,138.252924
dify,71195,YidaHu,Suzhou,Suzhou City,China,31.29833989999999,120.58319
dify,71195,patryk20120,Poland,Poland,Poland,51.919438,19.145136
dify,71195,nite-knite,"Suzhou, China",Suzhou,China,31.29833989999999,120.58319
dify,71195,tmokmss,Tokyo,Tokyo,Japan,35.6764225,139.650027
dify,71195,cuckootan,Nanjing,Nanjing,China,32.0583799,118.79647
dify,71195,aixgeek,Wuhan,Wuhan,China,30.5927599,114.30525
dify,71195,waltcow,"China, Guangzhou",China,Guangzhou,23.1290799,113.26436
dify,71195,erigo,China,China,China,35.86166,104.195397
dify,71195,miya,"Tokyo, Japan",Tokyo,Japan,35.6764225,139.650027
dify,71195,gijigae,"Yokohama, Japan",Yokohama,Japan,35.4436739,139.6379639
dify,71195,LeoQuote,Beijing,Beijing,China,39.904211,116.407395
dify,71195,Kennytian,"Wuhan, China",Wuhan,China,30.5927599,114.30525
dify,71195,WilliamEspegren,Sweden,Sweden,Sweden,60.12816100000001,18.643501
dify,71195,Woo0ood,China,China,China,35.86166,104.195397
dify,71195,kztao,beijing@china,Beijing,China,39.904211,116.407395
dify,71195,wellCh4n,"Hangzhou, Zhejiang, China",HangZhou,China,30.2741499,120.15515
dify,71195,oiuv,"Beijing,China",Beijing,China,39.904211,116.407395
dify,71195,iwaim,"Tokyo, Japan",Tokyo,Japan,35.6764225,139.650027
dify,71195,jasonhp,Singapore,Singapore,Singapore,1.352083,103.819836
dify,71195,lancemao,Shenzhen,Shenzhen,China,22.5428599,114.05956
dify,71195,wlrnet,Self,Hunan Province,China,28.1142216,112.9833341
dify,71195,huangbaichao,China,China,China,35.86166,104.195397
dify,71195,lng2020,United States,United States,United States,38.7945952,-106.5348379
dify,71195,PedroGomes02,Portugal,Portugal,Portugal,39.39987199999999,-8.224454
dify,71195,gubinjie,shanghai,Shanghai,China,31.230416,121.473701
dify,71195,killpanda,"Beijing, China",Beijing,China,39.904211,116.407395
dify,71195,Hisir0909,China,China,China,35.86166,104.195397
dify,71195,xhebox,SX China,Shanxi Province,China,35.86166,104.195397
dify,71195,badbye,China,China,China,35.86166,104.195397
dify,71195,sulgweb,guangzhou/china,Guangzhou,China,23.1290799,113.26436
dify,71195,GeorgeCaoJ,"Hangzhou,China",Hangzhou,China,30.2741499,120.15515
dify,71195,maybemaynot,"China, Beijing",China,Beijing,39.904211,116.407395
dify,71195,harrywang,"Newark, DE, USA",Newark,United States,39.6837226,-75.7496572
dify,71195,MH4GF,Japan,Japan,Japan,36.204824,138.252924
dify,71195,RockChinQ,"Guilin, China",Guilin,China,25.2736099,110.29002
dify,71195,kazuhisa-wada,"Tokyo, Japan",Tokyo,Japan,35.6764225,139.650027
dify,71195,kazukitakamatsu,"Sapporo, Japan",Sapporo,Japan,43.0617713,141.3544506
dify,71195,obadakhalili,Nablus,Nablus,Palestinian Territory,32.2226678,35.2621461
dify,71195,Seayon,Shanghai,Shanghai,China,31.230416,121.473701
dify,71195,kazuya-awano,"Saitama, Japan",Saitama,Japan,35.8616486,139.6454782
dify,71195,kenwoodjw,Guangzhou,Guangzhou,China,23.1290799,113.26436
dify,71195,qkdxorjs1002,"Gangnam-gu, Seoul, Republic of Korea",Gangnam-gu,Republic of Korea,37.4966645,127.0629804
dify,71195,powerfooI,Hangzhou,Hangzhou,China,30.2741499,120.15515
dify,71195,GOODBOY008,suzhou china,Suzhou City,China,31.29833989999999,120.58319
dify,71195,fishisnow,guangzhou,Guangzhou,China,23.1290799,113.26436
dify,71195,xiangpingjiang,"Hangzhou,China",Hangzhou,China,30.2741499,120.15515
dify,71195,saifeiLee,"Guangzhou, China",Guangzhou,China,23.1290799,113.26436
dify,71195,s2oBCN,Barcelona,Barcelona,Spain,41.3873974,2.168568
dify,71195,Poorandy,Hangzhou,Hangzhou,China,30.2741499,120.15515
dify,71195,baxiang,beijing china,Beijing,China,39.904211,116.407395
dify,71195,yenslife,"Kaohsiung, Taiwan",Kaohsiung,Taiwan,22.6272772,120.3014375
dify,71195,Blubiubiu,China Xi'An,Xi'an,China,34.2658138,108.9540936
dify,71195,simonmysun,Frankfurt am Main,Frankfurt am Main,Germany,50.1109221,8.6821267
dify,71195,snickerjp,"Tokyo, Japan",Tokyo,Japan,35.6764225,139.650027
dify,71195,rennokki,Romania,Romania,Romania,45.943161,24.96676
dify,71195,khazic,"China,Beijing",China,Beijing,39.904211,116.407395
dify,71195,realjustinwu,"Xiamen,Fujian,China",Xiamen,China,24.4795099,118.0894799
dify,71195,junjiem,Shanghai China,Shanghai,China,31.230416,121.473701
dify,71195,jqhr,"Nanjing, China",Nanjing,China,32.0583799,118.79647
dify,71195,klaus-xiong,ShenZhen,Shenzhen,China,22.5428599,114.05956
dify,71195,jat001,"Shenzhen, China",Shenzhen,China,22.5428599,114.05956
dify,71195,hanfangyuan4396,Shanghai,Shanghai,China,31.230416,121.473701
dify,71195,bakjos,"Bogota, Colombia",Bogota,Colombia,4.710988599999999,-74.072092
dify,71195,AtmosphereMao,GuangZhou,Guangzhou,China,23.1290799,113.26436
dify,71195,CheneyYin,"Wuxi, China",Wuxi,China,31.4909899,120.31237
dify,71195,jasonkang14,"Seoul, Korea",Seoul,Korea,37.550263,126.9970831
dify,71195,agungbesti,Bandung,Bandung,Indonesia,-6.9174639,107.6191228
dify,71195,iamsk,shenzhen,Shenzhen,China,22.5428599,114.05956
dify,71195,hustyichi,Hangzhou.Zhejiang.China,Hangzhou,China,30.2741499,120.15515
dify,71195,twisker,"Chengdu, Sichuan, China",Chengdu,China,30.5722599,104.0665099
dify,71195,Ag2S1,Beijing,Beijing,China,39.904211,116.407395
dify,71195,liuyanyi,China,China,China,35.86166,104.195397
dify,71195,xu-song,"Beijing, China",Beijing,China,39.904211,116.407395
dify,71195,sunxiaoguang,"Beijing, People's Republic of China",Beijing,People's Republic of China,39.904211,116.407395
dify,71195,ziyu4huang,"Taiwan, Hsinchu",Taiwan,Hsinchu,24.8138287,120.9674798
dify,71195,moyueheng,China ChongQing,Chongqing,China,29.5656843,106.5511838
dify,71195,thalessalazar,"Sao Jose, Santa Catarina - Brazil",Saint Joseph,Santa Catarina - Brazil,-27.5950396,-48.6137681
dify,71195,takuya-o,"Fujisawa, Japan",Fujisawa,JAPAN,35.3391654,139.49014
dify,71195,Tuyohai,Wuhan China,Wuhan,China,30.5927599,114.30525
dify,71195,WayneCao,ShangHai,Shanghai,China,31.230416,121.473701
dify,71195,lichengwu,"China,Beijing",China,Beijing,39.904211,116.407395
dify,71195,mabuchs,Tokyo,Tokyo,Japan,35.6764225,139.650027
dify,71195,goocarlos,"Suzhou, China",Suzhou,China,31.29833989999999,120.58319
dify,71195,denverdino,"Beijing, China",Beijing,China,39.904211,116.407395
dify,71195,cainiaokan,China,China,China,35.86166,104.195397
dify,71195,Littlesheepxy,"No. 12, Xihuan Middle Road, Yizhuang Economic and Technological Development Zone, Daxing District, Beijing",district,China,39.77537,116.51488
dify,71195,tellsiddh,Arizona,Arizona,United States,33.4470173,-112.0957955
dify,71195,shutootaki,Tokyo,Tokyo,Japan,35.6764225,139.650027
dify,71195,morugu,"Tokyo, Japan",Tokyo,Japan,35.6764225,139.650027
dify,71195,LinkX-shomasakamoto,Japan,Japan,Japan,36.204824,138.252924
dify,71195,shoheiweb86,japan,Japan,japan,36.204824,138.252924
dify,71195,shaiss,United States,United States,United States,38.7945952,-106.5348379
dify,71195,googio,USA,New York,United States,40.7127753,-74.0059728
dify,71195,thiner,Shanghai,Shanghai,China,31.230416,121.473701
dify,71195,Sumkor,"Guangzhou, China",Guangzhou,China,23.1290799,113.26436
dify,71195,sunner,"Beijing, China",Beijing,China,39.904211,116.407395
dify,71195,GuoNingNing,BeiJing,Beijing,China,39.904211,116.407395
dify,71195,Asterovim,France,France,France,46.227638,2.213749
dify,71195,2284730142,ShangHai，China,Shanghai,China,31.230416,121.473701
dify,71195,from2001,Japan,Japan,Japan,36.204824,138.252924
dify,71195,matheus-mondaini,"Rio de Janeiro, Brazil",Rio de Janeiro,Brazil,-22.9068467,-43.1728965
dify,71195,ramen2020,tokyo,Tokyo,Japan,35.6764225,139.650027
dify,71195,mnogu,"Tokyo, Japan",Tokyo,Japan,35.6764225,139.650027
dify,71195,Montaserz,Prague,Capital city Prague,Czechia,50.0755381,14.4378005
dify,71195,takatea,"Tokyo, Japan",Tokyo,Japan,35.6764225,139.650027
dify,71195,ericyangpan,Beijing,Beijing,China,39.904211,116.407395
dify,71195,pvoo,Eindhoven,Eindhoven,The Netherlands,51.42314229999999,5.462289699999999
dify,71195,vigstudio,Vietnam,Vietnam,Vietnam,14.058324,108.277199
dify,71195,lqhl,Beijing,Beijing,China,39.904211,116.407395
dify,71195,QuietlyChan,Wuhan China,Wuhan,China,30.5927599,114.30525
dify,71195,rainchen,China,China,China,35.86166,104.195397
dify,71195,sasaharukimedes,Japan,Japan,Japan,36.204824,138.252924
dify,71195,yunyu-Mr,"Guangzhou,Guangdong",Guangzhou,Guangdong,23.1290799,113.26436
dify,71195,stonexer,Nanjing China,Nanjing,China,32.0583799,118.79647
dify,71195,lyfuci,"Shenzhen City, Guangdong Province, China",Shenzhen City,China,22.5428599,114.05956
dify,71195,os1ma,Japan,Japan,Japan,36.204824,138.252924
dify,71195,zandko,Zhejiang Province,Zhejiang Province,China,30.2655499,120.1536
dify,71195,mapleeit,Shenzhen,Shenzhen,China,22.5428599,114.05956
dify,71195,aqachun,"Guizhou, China",Guizhou,China,26.5981999,106.70722
dify,71195,baojingyu,Shanghai,Shanghai,China,31.230416,121.473701
dify,71195,bushuai,"Shaanxi, China",Shaanxi,China,34.2648599,108.95424
dify,71195,comfuture,"Seoul, Korea",Seoul,Korea,37.550263,126.9970831
dify,71195,hanqingwu,china,China,china,35.86166,104.195397
dify,71195,cr-zhichen,China DaLian,Dalian,China,38.9139899,121.6147
dify,71195,daisuke0926dev,Fukuoka Japan,Fukuoka Prefecture,Japan,33.5901838,130.4016888
dify,71195,h4ckdepy,"ShangHai,China",ShangHai,China,31.230416,121.473701
dify,71195,Tseian,"Canton,China",Canton,China,23.1290799,113.26436
dify,71195,vasu-negi,"Gainesville, FL",Gainesville,United States,29.6519563,-82.324998
dify,71195,VickyGuo0907,"Massachusetts, US",Massachusetts,United States,42.3579679,-71.0626885
dify,71195,VinceOPS,France,France,France,46.227638,2.213749
dify,71195,wlbksy,"Beijing, China",Beijing,China,39.904211,116.407395
dify,71195,bwanglzu,"Berlin, Germany",Berlin,Germany,52.52000659999999,13.404954
dify,71195,huxiaoxi1992,Chengdu,Chengdu,China,30.5722599,104.0665099
dify,71195,Yongtae723,Tokyo,Tokyo,Japan,35.6764225,139.650027
dify,71195,kgpp34,"Pudong, Shanghai",Pudong,Shanghai,31.2211399,121.54409
dify,71195,hengqujushi,"Beijing, China",Beijing,China,39.904211,116.407395
dify,71195,y10ab1,"Taipei, Taiwan",Taipei,Taiwan,25.0329694,121.5654177
dify,71195,zc277584121,"HangZhou, China",HangZhou,China,30.2741499,120.15515
dify,71195,JackLCL,Shanghai,Shanghai,China,31.230416,121.473701
dify,71195,fengdwx,the,New York,United States,40.7127753,-74.0059728
dify,71195,dromerolovo,"Burnaby, BC",Burnaby,BC,49.2488091,-122.9805104
dify,71195,Blackman99,Hefei,Hefei,China,31.8205699,117.22901
dify,71195,ArtificialZeng,Beijing,Beijing,China,39.904211,116.407395
dify,71195,radiumce,Hangzhou,Hangzhou,China,30.2741499,120.15515
dify,71195,EvenYan,ShenZhen,Shenzhen,China,22.5428599,114.05956
dify,71195,FamousMai,"Nanshan, Shenzhen, Guangdong",Shenzhen Nanshan (Lianping) co-builds industrial park,China,22.5333199,113.93041
dify,71195,Fyphen1223,Japan,Japan,Japan,36.204824,138.252924
dify,71195,Gallardot,"Guangzhou, China",Guangzhou,China,23.1290799,113.26436
dify,71195,halogen22,Japan,Japan,Japan,36.204824,138.252924
dify,71195,Retr0-01,Greece,Athens,Greece,39.074208,21.824312
dify,71195,75py,Japan,Japan,Japan,36.204824,138.252924
dify,71195,aerok,"Fujian, China",Fujian,China,26.0998199,119.2965899
dify,71195,alexcodelf,Singapore,Singapore,Singapore,1.352083,103.819836
dify,71195,alterxyz,Toronto,Toronto,Canada,43.653226,-79.3831843
dify,71195,zhangao0086,"Xiamen, China",Xiamen,China,24.4795099,118.0894799
dify,71195,benjefferies,Bristol,Bristol,United Kingdom,51.454513,-2.58791
dify,71195,lunarianss,"ShenZhen, China",ShenZhen,China,22.5428599,114.05956
dify,71195,BodhiHu,Shanghai,Shanghai,China,31.230416,121.473701
dify,71195,bolechen,"Wuhan,China",Wuhan,China,30.5927599,114.30525
dify,71195,buddypia,Tokyo,Tokyo,Japan,35.6764225,139.650027
dify,71195,CN-P5,Shandong,Shandong Province,China,36.6682599,117.02076
dify,71195,qweasdzxcpkh,Guangdong Shenzhen,Shenzhen,China,22.5428599,114.05956
dify,71195,carsonkahn-external,San Francisco,San Francisco,United States,37.7749295,-122.4194155
dify,71195,cemremengu,Nicosia,Nicosia,Cyprus - Kıbrıs,35.1855659,33.38227639999999
dify,71195,KennFalcon,Hangzhou,Hangzhou,China,30.2741499,120.15515
dify,71195,LiXuemin,Beijing,Beijing,China,39.904211,116.407395
dify,71195,KiyotakaMatsushita,"Tokyo, Japan",Tokyo,Japan,35.6764225,139.650027
dify,71195,holyCowMp3,Ukraine,Ukraine,Ukraine,48.379433,31.16558
dify,71195,kotamat,Tokyo,Tokyo,Japan,35.6764225,139.650027
dify,71195,kuizuo,Fuzhou,Fuzhou,China,26.0742099,119.29647
dify,71195,lxm,Beijing,Beijing,China,39.904211,116.407395
dify,71195,LeePui,guangzhou.china,Guangzhou,China,23.1290799,113.26436
dify,71195,leng-yue,Saint Clare,Saint Clare,United States,37.3541079,-121.9552356
dify,71195,Caplost,Singapore,Singapore,Singapore,1.352083,103.819836
dify,71195,lesenelir,"Guangzhou, China",Guangzhou,China,23.1290799,113.26436
dify,71195,Linij,Taizhou,Taizhou City,China,28.6561099,121.42056
dify,71195,lc-rezende,"Rio de Janeiro, RJ",Rio de Janeiro,RJ,-22.9068467,-43.1728965
dify,71195,hanktrizz,Melbourne,Melbourne,Australia,-37.8136276,144.9630576
dify,71195,henrybit,xiamen,Xiamen,China,24.4795099,118.0894799
dify,71195,HiroshigeAoki,Tokyo,Tokyo,Japan,35.6764225,139.650027
dify,71195,htynkn,ChengDu,Chengdu,China,30.5722599,104.0665099
dify,71195,hundredwz,China,China,China,35.86166,104.195397
dify,71195,hgbdev,Ho Chi Minh City,Ho Chi Minh City,Vietnam,10.8230989,106.6296638
dify,71195,helioLJ,Brazil,Brazil,Brazil,-14.235004,-51.92528
dify,71195,igorvolocRC,San Francisco,San Francisco,United States,37.7749295,-122.4194155
dify,71195,laojianzi,GD Shenzhen China,China Southern Airlines Shenzhen,China,22.5428599,114.05956
dify,71195,jialeicui,"Beijing, China",Beijing,China,39.904211,116.407395
dify,71195,akayj,"Shanghai, China",Shanghai,China,31.230416,121.473701
dify,71195,chjfth,"Fuzhou, Fujian, China",Fuzhou,China,26.0742099,119.29647
dify,71195,lotabout,"Shanghai, China",Shanghai,China,31.230416,121.473701
dify,71195,JuHyung-Son,"Seoul, South Korea",Seoul,South Korea,37.550263,126.9970831
dify,71195,nanasi880,"Kyoto, Japan",Kyoto,Japan,35.011564,135.7681489
n8n,62415,janober,"Berlin, Germany",Berlin,Germany,52.52000659999999,13.404954
n8n,62415,ivov,"Berlin, Germany",Berlin,Germany,52.52000659999999,13.404954
n8n,62415,alexgrozav,"Timisoara, Romania",Timisoara,Romania,45.7557559,21.2322208
n8n,62415,Joffcom,Henley-on-Thames / UK,Henley-on-Thames,United Kingdom,51.535764,-0.902894
n8n,62415,tomi,"Tampere, Finland",Tampere,Finland,61.4971456,23.7525985
n8n,62415,cstuncsik,"Biatorbagy, Hungary",Biatorbagy,Hungary,47.4706818,18.8205591
n8n,62415,OlegIvaniv,Prague,Capital city Prague,Czechia,50.0755381,14.4378005
n8n,62415,MiloradFilipovic,Berlin,Berlin,Germany,52.52000659999999,13.404954
n8n,62415,krynble,"Porto, Portugal",Harbor,Portugal,41.1579438,-8.6291053
n8n,62415,elsmr,"Ghent, Belgium",Ghent,Belgium,51.0499922,3.7303853
n8n,62415,flipswitchingmonkey,"Berlin, Germany",Berlin,Germany,52.52000659999999,13.404954
n8n,62415,despairblue,Berlin,Berlin,Germany,52.52000659999999,13.404954
n8n,62415,Rupenieks,Berlin,Berlin,Germany,52.52000659999999,13.404954
n8n,62415,harshil1712,Berlin,Berlin,Germany,52.52000659999999,13.404954
n8n,62415,maspio,Berlin,Berlin,Germany,52.52000659999999,13.404954
n8n,62415,csuermann,Berlin,Berlin,Germany,52.52000659999999,13.404954
n8n,62415,CharlieKolb,Bochum,Bochum,Germany,51.4818445,7.216236299999999
n8n,62415,BHesseldieck,"Berlin, Germany",Berlin,Germany,52.52000659999999,13.404954
n8n,62415,quansenB,regensburg,regensburg,Germany,49.0134297,12.1016236
n8n,62415,tanay1337,"Berlin, Germany",Berlin,Germany,52.52000659999999,13.404954
n8n,62415,StarfallProjects,"West Yorkshire, UK",West Yorkshire,United Kingdom,53.81081760000001,-1.76261
n8n,62415,trojanh,Mumbai,Mumbai Suburban,India,19.0759837,72.8776559
n8n,62415,ahsanv,Berlin,Berlin,Germany,52.52000659999999,13.404954
n8n,62415,pemontto,London,London,United Kingdom,51.5072178,-0.1275862
n8n,62415,gandreini,Tuscany,Tuscany,Italy,43.5671153,10.9807003
n8n,62415,Shraddha2104,California,California,United States,34.0548951,-118.2426415
n8n,62415,that-one-tom,"Bernau, Germany",Bernau,Germany,52.6874845,13.5672765
n8n,62415,dana-gill,Berlin,Berlin,Germany,52.52000659999999,13.404954
n8n,62415,airmoi,Paris,Paris,France,48.8575475,2.3513765
n8n,62415,bramkn,The Netherlands,The Netherlands,The Netherlands,52.132633,5.291265999999999
n8n,62415,thomasleveil,"Rennes, France",Rennes,France,48.117266,-1.6777926
n8n,62415,rgeorgel,Vancouver,Vancouver,Canada,49.2827291,-123.1207375
n8n,62415,mscansian,"Florianopolis, Brazil",Florianopolis,Brazil,-27.5968578,-48.5468118
n8n,62415,lucafaggianelli,"Brussels, Belgium",Brussels,Belgium,50.84770289999999,4.357200100000001
n8n,62415,erin2722,"New York, NY",New York,United States,40.7127753,-74.0059728
n8n,62415,romainminaud,Paris,Paris,France,48.8575475,2.3513765
n8n,62415,terenaa,"Cracow, Poland",Cracow,Poland,50.06465009999999,19.9449799
n8n,62415,Bearbobs,Berlin,Berlin,Germany,52.52000659999999,13.404954
n8n,62415,MarcL,"Warrington, UK",Warrington,United Kingdom,53.39203999999999,-2.6023453
n8n,62415,ayatnkw,Berlin ,Berlin,Germany,52.52000659999999,13.404954
n8n,62415,vuchl,Germany,Germany,Germany,51.165691,10.451526
n8n,62415,mcolomer,"Granollers, Spain",Granollers,Spain,41.60619270000001,2.2870889
n8n,62415,mieky,"Tampere, Finland",Tampere,Finland,61.4971456,23.7525985
n8n,62415,0xsven,Berlin,Berlin,Germany,52.52000659999999,13.404954
n8n,62415,drudge,"New York, USA",NY,United States,40.7127753,-74.0059728
n8n,62415,deurk,France,France,France,46.227638,2.213749
n8n,62415,Yann-J,Kigali,Kigali City,Rwanda,-1.9440727,30.0618851
n8n,62415,richteri,Hungary,Budapest,Hungary,47.162494,19.503304
n8n,62415,ceefour,"Bandung, Indonesia",Bandung,Indonesia,-6.9174639,107.6191228
n8n,62415,frane,"Berlin, Germany",Berlin,Germany,52.52000659999999,13.404954
n8n,62415,saintsebastian,Germany,Germany,Germany,51.165691,10.451526
n8n,62415,camcelroy,"St. Louis, MO, USA",St. Louis,United States,38.6270025,-90.1994042
n8n,62415,arpadgabor,Finland,Finland,Finland,61.92410999999999,25.748151
n8n,62415,mocanew,"Bucharest, Romania",Bucharest,Romania,44.4267674,26.1025384
n8n,62415,wohfab,Germany,Germany,Germany,51.165691,10.451526
n8n,62415,tumf,"Bangkok, Thailand",Bangkok,Thailand,13.7563309,100.5017651
n8n,62415,awitkowski0,Pennsylvania,Pennsylvania,United States,40.263834,-76.8848197
n8n,62415,caarlos0,Brazil,Brazil,Brazil,-14.235004,-51.92528
n8n,62415,TMaYaD,Hyderabad,Hyderabad,India,17.406498,78.47724389999999
n8n,62415,toadle,Hamburg,Hamburg,Germany,53.5488282,9.9871703
n8n,62415,svzi,"Hameln, Germany",Hameln,Germany,52.1042035,9.3616
n8n,62415,pestevez,"Miami, FL",Miami,United States,25.7616798,-80.1917902
n8n,62415,thewizarodofoz,"Tel Aviv, Israel",Tel Aviv,Israel,32.0852999,34.78176759999999
n8n,62415,nihaals,England,London,England,52.3555177,-1.1743197
n8n,62415,mluhta,Finland,Finland,Finland,61.92410999999999,25.748151
n8n,62415,ericHao22,"Taipei, Taiwan",Taipei,Taiwan,25.0329694,121.5654177
n8n,62415,chrtkv,Saint Petersburg,Saint Petersburg,Russia,59.9310584,30.3609097
n8n,62415,umireon,"Tokyo, Japan",Tokyo,Japan,35.6764225,139.650027
n8n,62415,vbarrier,Toulouse,Toulouse,France,43.6048462,1.442848
n8n,62415,sebto,Iran,Tehran,Iran,32.427908,53.688046
n8n,62415,Schnouki,"Nancy, France",Nancy,France,48.692054,6.184417
n8n,62415,OpenSourceSimon,Netherlands,The Netherlands,Netherlands,52.132633,5.291265999999999
n8n,62415,adrian-martinez-vdshop,Madrid,Madrid,Spain,40.41672790000001,-3.7032905
n8n,62415,yoshino-s,Beijing. China,Beijing,China,39.904211,116.407395
n8n,62415,ajmeredith1200,York - UK ,York,United Kingdom,53.9614205,-1.0739108
n8n,62415,lucaskenda,"Buenos Aires, Argentina",Buenos Aires,Argentina,-34.6036844,-58.3815591
n8n,62415,mertmit,Turkey,Türkiye,Turkey,38.963745,35.243322
n8n,62415,saurabharch,India,India,India,20.593684,78.96288
n8n,62415,X-pech,Saint-Petersburg,Saint Petersburg,Russia,59.9310584,30.3609097
n8n,62415,mickaelandrieu,"Bordeaux, France",Bordeaux,France,44.8416106,-0.5810938
n8n,62415,albertopasqualetto,"Grenoble, France",Grenoble,France,45.188529,5.724524
n8n,62415,ctrl-freak,"Perth, Western Australia",Perth,Western Australia,-31.9513993,115.8616783
n8n,62415,fedme,Berlin,Berlin,Germany,52.52000659999999,13.404954
n8n,62415,krasaee,Canada,San Francisco,Canada,56.130366,-106.346771
n8n,62415,luizeof,"Pindamonhangaba, Sao Paulo",Pindamonhangaba,São Paulo,-22.9263928,-45.4620404
n8n,62415,sandramsc,"Berlin, Germany",Berlin,Germany,52.52000659999999,13.404954
n8n,62415,rhyswilliamsza,"Cape Town, South Africa",Cape Town,South Africa,-33.922087,18.4231418
n8n,62415,pballhausen,Germany,Berlin,Germany,51.165691,10.451526
n8n,62415,MarkBennett,"Edmonton, Canada",Edmonton,Canada,53.5460983,-113.4937266
n8n,62415,spam-n-eggs,USA,United States,USA,38.7945952,-106.5348379
n8n,62415,Marten-S,Amsterdam,Amsterdam,The Netherlands,52.3675734,4.9041389
n8n,62415,simshaun,North Carolina,North Carolina,United States,35.7804509,-78.6400751
n8n,62415,bestlong,"Taichung City, Taiwan",Taichung City,Taiwan,24.1477358,120.6736482
n8n,62415,mcmx,Costa Rica,Costa Rica,Costa Rica,9.748917,-83.753428
n8n,62415,robotkad,Brisbane,City of Brisbane,Australia,-27.4704528,153.0260341
n8n,62415,samdotci,London,London,United Kingdom,51.5072178,-0.1275862
n8n,62415,RytisLT,"Bayreuth, Germany",Bayreuth,Germany,49.9456399,11.5713346
n8n,62415,Goggin,"Ontario, Canada",Ontario,Canada,51.253775,-85.3232139
n8n,62415,romeobalta,UK,Oak,Central African Republic / Central African Republic,55.378051,-3.435973
